ID,NAME,Acanthocyclops vernalis,Aglaodiaptomus leptopus,Alona affinis,Alona costata,Alona guttata,Alona rectangula,Alonella nana,Bosmina coregoni,Bosmina hagmanni,Bosmina longirostris,Ceriodaphnia pulchella,Ceriodaphnia quadrangula,Ceriodaphnia reticulata,Chydorus sphaericus,Cyclops scutifer,Daphnia ambigua,Daphnia dentifera,Daphnia galeata,Daphnia longiremis,Daphnia middendorffiana,Daphnia pulex,Daphnia schodleri,Diacyclops thomasi,Diaphanosoma birgei,Epischura nevadensis,Eucyclops agilis,Eurycercus lamellatus,Hesperodiaptomus arcticus,Hesperodiaptomus franciscanus,Hesperodiaptomus kenai,Hesperodiaptomus shoshone,Heterocope septentrionalis,Holopedium gibberum,Leptodiaptomus angustilobus,Leptodiaptomus novamexicanus,Leptodiaptomus nudus,Leptodiaptomus sicilis,Leptodiaptomus signicauda,Leptodiaptomus tyrrelli,Leptodora kindtii,Macrocyclops albidus,Microcyclops varicans,Orthocyclops modestus,Polyphemus pediculus,Scapholeberis kingi,Sida crystallina,Simocephalus vetulus,Skistodiaptomus oregonensis,LATITUDE,LONGITUDE,FISH_STOCKING,RECENT_DATE,RECENT_REF,RESEARCH_GROUP,#_YEARS_SAMPLED
1,Kitlope,1,0,0,0,0,0,0,1,0,0,0,0,0,0,0,0,0,1,0,0,0,0,1,0,1,0,0,0,1,0,0,0,1,0,0,0,0,0,1,0,0,0,0,1,0,0,0,0,53.11147,-127.78257,0,1978,Rankin_et_al_1983,DFO_Pacific_Station,2
2,Skidegate,0,0,0,0,0,0,0,1,0,0,0,0,0,0,0,0,0,0,0,0,1,0,1,0,1,0,0,0,0,0,0,0,1,0,0,0,0,0,0,0,0,0,0,0,0,0,0,0,53.09703,-131.91766,0,1977,Rankin_et_al_1983b,DFO_Pacific_Station,1
3,Mathers,1,0,0,0,0,0,0,1,0,0,0,0,0,0,0,0,0,0,0,0,1,0,0,0,1,0,0,0,0,0,0,0,0,0,0,0,0,0,0,0,0,0,0,0,0,0,0,0,52.97883,-131.83873,0,1977,Rankin_et_al_1983,DFO_Pacific_Station,1
4,Mosquito,0,0,0,0,0,0,0,1,0,0,0,0,0,0,0,0,0,0,0,0,1,0,1,0,1,0,0,0,0,0,0,0,1,0,0,0,0,0,0,0,0,0,0,0,0,0,0,0,53.06281,-132.11806,0,1977,Rankin_et_al_1983,DFO_Pacific_Station,1
5,Awun,0,0,0,0,0,0,0,1,0,0,0,0,0,0,0,0,0,0,1,0,1,0,1,0,1,0,0,0,0,0,0,0,1,0,0,0,0,0,0,0,0,0,0,0,0,0,0,0,53.60275,-132.56531,0,1977,Rankin_et_al_1983,DFO_Pacific_Station,1
6,Ian,0,0,0,0,0,0,0,1,0,0,0,0,0,0,0,0,0,0,0,0,1,0,1,0,1,0,0,0,0,0,0,0,1,0,0,0,0,0,0,0,1,0,0,0,0,0,0,0,53.75882,-132.57,0,1977,Rankin_et_al_1983,DFO_Pacific_Station,1
7,Mercer,1,0,1,0,0,0,0,1,0,0,0,0,0,0,0,0,0,0,0,0,1,0,0,0,1,0,0,0,0,0,0,0,1,0,0,0,0,0,0,0,1,0,0,0,0,0,0,0,53.56432,-132.87885,0,1977,Rankin_et_al_1983,DFO_Pacific_Station,1
8,Eden,1,0,0,0,0,0,0,1,0,0,0,0,0,0,1,0,0,0,1,0,0,0,0,0,1,0,0,0,0,0,0,0,1,0,0,0,0,0,0,0,0,0,0,0,0,0,0,0,53.84232,-132.74852,0,1977,Rankin_et_al_1983,DFO_Pacific_Station,1
9,Yakoun,0,0,0,0,0,0,0,1,0,0,0,0,0,0,0,0,0,0,1,0,0,0,1,0,1,0,0,0,0,0,0,0,0,0,0,0,0,0,0,0,0,0,0,0,0,0,0,0,53.31021,-132.30612,0,1977,Rankin_et_al_1983,DFO_Pacific_Station,1
11,Gwendoline,0,1,0,0,0,0,0,0,0,1,1,1,0,1,0,0,1,0,0,0,0,0,1,1,0,0,0,0,0,1,0,0,1,0,0,0,0,0,0,0,0,0,0,1,0,0,0,0,49.32819,-122.57184,0,1976,Neil_1984,Neil,3
12,Loon,0,0,0,0,0,0,0,0,0,1,0,1,0,0,0,0,1,1,1,0,1,0,1,1,0,0,0,0,0,1,0,0,1,0,0,0,0,0,1,0,1,0,0,1,0,0,0,1,49.31008,-122.58861,0,1969,Neil_1978,Neil,2
13,Eunice,0,1,0,0,0,0,0,0,0,1,1,0,0,0,0,0,1,0,0,0,0,0,1,1,0,0,0,0,0,1,0,0,1,0,0,0,0,0,1,0,0,0,0,1,0,0,0,0,49.33506,-122.5602,0,1972,Neil_1978,Neil,4
14,Deer,1,0,0,0,0,0,0,0,0,1,0,1,0,0,0,0,1,0,0,0,1,0,1,1,0,0,0,0,0,0,0,0,0,0,0,0,0,0,0,0,0,0,0,1,0,0,0,1,49.23638,-122.97143,1,1978,Chapman_ et_al_1985,Northcote,2
17,Little Harrison,0,0,0,0,0,0,0,1,0,0,0,0,0,1,0,0,0,0,0,0,0,0,1,0,0,1,1,0,0,0,0,0,0,0,0,0,0,0,0,0,0,0,0,0,0,0,0,0,49.76497,-122.15778,1,1922,Foerster_1925,Foerster,1
18,Morris,1,0,1,0,0,0,0,1,0,0,0,0,0,1,0,0,0,0,0,0,0,0,1,0,1,0,1,0,0,0,0,0,0,0,0,0,0,0,0,1,0,0,0,0,0,0,0,0,49.31406,-121.87318,1,1922,Foerster_1925,Foerster,1
19,Hicks,0,0,0,0,1,0,0,1,0,0,0,0,0,1,0,0,0,0,0,0,0,0,0,0,1,0,0,0,0,0,0,0,1,0,0,0,0,0,0,0,0,0,0,0,0,0,0,0,49.34015,-121.69944,1,1922,Foerster_1925,Foerster,1
20,Harrison,1,0,1,0,1,0,0,1,0,0,0,0,0,1,0,0,0,0,0,0,1,0,1,0,1,1,1,0,0,0,0,0,1,0,0,0,0,0,0,1,0,0,0,0,1,1,0,0,49.55435,-121.86241,1,1923,Foerster_1925,Foerster,2
21,Trout,1,1,1,0,1,0,0,1,0,0,0,0,1,1,0,0,0,0,0,0,1,0,0,1,1,0,1,0,0,0,0,0,1,0,0,0,0,0,0,0,0,0,0,1,1,1,0,0,49.34894,-121.73909,1,1922,Foerster_1925,Foerster,1
22,Kawkawa,0,0,0,0,0,0,0,0,0,0,0,0,0,0,0,0,0,0,0,0,0,0,0,0,1,0,0,0,0,0,0,0,0,0,0,0,0,0,0,0,0,0,0,0,0,0,0,0,49.38719,-121.402,1,NA,Carl_1940,DFO_Pacific_Station,1
23,Nimpkish,1,0,0,0,0,0,0,1,0,0,0,0,0,0,0,0,0,0,1,0,1,0,1,0,1,0,0,0,1,1,0,0,1,0,0,0,0,0,0,0,1,0,0,1,0,1,0,1,50.38561,-126.96587,0,1978,Rankin_et_al_1983,DFO_Pacific_Station,2
24,Woss,1,0,0,0,0,0,0,1,0,0,0,0,0,0,0,1,0,0,0,0,1,0,1,0,1,0,0,0,1,1,0,0,1,0,0,0,0,0,0,0,1,0,0,0,0,0,0,1,50.1287,-126.60279,0,1978,Rankin_et_al_1983,DFO_Pacific_Station,1
25,Mohun,1,0,0,0,0,0,0,1,0,0,0,0,0,1,0,1,0,0,1,0,1,0,1,0,1,0,0,0,0,1,0,1,1,0,0,0,0,0,0,1,1,0,0,1,1,1,0,1,50.10603,-125.4972,1,1978,Rankin_et_al_1983,DFO_Pacific_Station,2
26,Kennedy,1,0,0,0,0,0,0,1,0,0,0,0,0,0,0,1,0,0,1,0,1,0,1,0,1,0,0,0,0,1,0,0,1,0,0,0,0,0,1,1,1,0,0,1,1,1,0,1,49.05218,-125.53424,0,1978,Rankin_et_al_1983,DFO_Pacific_Station,3
27,Comox,0,0,0,0,0,0,0,1,0,0,0,0,0,0,0,0,0,0,0,0,1,0,1,0,0,0,0,0,0,0,0,0,1,0,0,0,0,0,1,0,0,0,0,1,0,0,0,1,49.61876,-125.16576,1,1971,Kennedy_LeBrasseur_1972,DFO_Pacific_Station,1
28,Elsie,0,0,0,0,0,0,0,1,0,0,0,0,0,0,0,0,0,0,0,0,1,0,1,0,0,0,0,0,0,1,0,0,1,0,0,0,0,0,1,0,0,0,0,1,1,0,0,1,49.45447,-125.12075,1,1971,Kennedy_LeBrasseur_1972,DFO_Pacific_Station,1
29,Henderson,1,0,0,0,0,0,0,1,0,0,0,0,0,0,0,1,0,0,1,0,1,0,1,0,0,0,0,0,0,0,0,0,1,0,0,0,0,0,1,0,1,0,0,1,1,1,0,1,49.09736,-125.05161,1,1978,Rankin_et_al_1983,DFO_Pacific_Station,3
30,Deep (aka Oshinow),0,0,0,0,0,0,0,1,0,0,0,0,0,0,0,0,0,0,0,0,1,0,1,0,1,0,0,0,0,0,0,0,1,0,0,0,0,0,1,0,0,0,0,1,1,0,0,1,49.45112,-125.32987,0,1971,Kennedy_LeBrasseur_1972,DFO_Pacific_Station,1
31,Nahmint,0,0,0,0,0,0,0,1,0,0,0,0,0,0,0,0,0,0,1,0,1,0,1,0,0,0,0,0,0,0,0,0,0,0,0,0,0,0,0,1,0,0,0,1,1,1,0,1,49.16253,-125.02972,0,1971,Kennedy_LeBrasseur_1972,DFO_Pacific_Station,1
32,Sproat,1,0,0,0,0,0,0,1,0,0,0,0,0,0,0,0,0,0,1,0,1,0,1,0,1,0,0,0,0,0,0,0,1,0,0,0,0,0,0,0,0,0,0,1,1,0,0,1,49.26671,-125.03689,1,1977,Rankin_et_al_1983,DFO_Pacific_Station,2
33,Great Central,1,0,1,0,0,0,0,1,0,0,0,0,0,1,0,1,0,0,1,0,1,0,1,0,1,0,0,0,0,1,0,0,1,0,0,0,0,0,1,0,0,0,0,1,1,1,0,1,49.37013,-125.20496,1,1978,Rankin_et_al_1983,DFO_Pacific_Station,4
34,Prospect,0,0,0,0,0,0,0,0,0,0,0,0,0,0,0,0,1,0,0,0,0,0,1,0,1,0,0,0,1,0,0,0,0,0,0,0,0,0,0,1,1,0,0,0,1,1,0,0,48.51355,-123.44165,1,NA,Carl_1940,DFO_Pacific_Station,1
35,Shawnigan,0,0,0,0,0,0,0,1,0,0,0,0,0,0,0,0,1,0,0,0,0,0,1,0,1,0,0,0,0,0,0,0,0,0,0,0,0,0,0,1,0,0,0,1,1,1,0,0,48.64052,-123.64071,1,NA,Carl_1940,DFO_Pacific_Station,1
36,Cowichan,0,0,0,0,0,0,0,1,0,0,0,0,0,0,0,0,1,0,0,0,1,0,1,1,0,0,1,0,0,0,0,0,0,0,0,0,0,0,0,1,0,0,0,1,1,1,0,1,48.88496,-124.30037,1,NA,Carl_1953,DFO_Pacific_Station,1
38,Hobiton,1,0,0,0,0,0,0,1,0,1,0,0,0,0,0,1,0,0,1,0,0,0,1,1,1,0,0,0,0,1,0,0,1,0,0,0,0,0,0,1,1,0,0,1,0,1,0,1,48.75607,-124.79988,0,1978,Rankin_et_al_1983,DFO_Pacific_Station,3
39,Heydon,0,0,0,0,0,0,0,1,0,0,0,0,0,0,0,0,0,0,0,0,1,0,1,0,1,0,0,0,0,1,0,0,0,0,0,0,0,0,0,1,0,0,0,1,1,1,0,1,50.53988,-125.67184,0,1977,Rankin_et_al_1983,DFO_Pacific_Station,1
40,Fulmore,0,0,0,0,0,0,0,1,0,0,0,0,0,0,0,0,0,0,0,0,1,0,1,0,1,0,0,0,0,0,0,0,0,0,0,0,0,0,0,0,0,0,0,0,0,0,0,1,50.58277,-125.95347,0,1977,Rankin_et_al_1983,DFO_Pacific_Station,1
41,Phillips,0,0,0,0,0,0,0,1,0,0,0,0,0,0,0,1,0,0,0,0,1,0,1,0,0,0,0,0,0,0,0,0,0,0,0,0,0,0,0,0,1,0,0,1,0,0,0,1,50.59636,-125.34114,0,1977,Rankin_et_al_1983b,DFO_Pacific_Station,1
42,Sakinaw,0,0,0,0,0,0,0,1,0,0,0,0,0,0,0,0,0,0,0,0,1,0,1,0,0,0,0,0,0,0,0,0,0,0,0,0,0,0,0,1,0,0,0,1,1,1,0,1,49.68085,-124.00899,1,1977,Rankin_et_al_1983,DFO_Pacific_Station,1
43,Simpson,1,0,0,0,0,0,0,1,0,0,0,0,0,0,1,0,0,1,0,0,0,0,0,0,0,0,0,0,1,0,0,0,1,0,0,0,0,0,0,0,0,0,0,1,0,0,0,0,53.61878,-129.54965,0,1978,Rankin_Ashton_1980,DFO_Pacific_Station,1
44,Lowe,1,0,0,0,0,0,0,1,0,0,0,0,0,0,0,0,0,0,1,0,0,0,0,0,1,0,0,0,1,1,0,0,1,0,0,0,0,0,0,0,1,0,0,1,1,0,0,1,53.58066,-129.5442,0,1978,Rankin_Ashton_1980,DFO_Pacific_Station,1
45,Quatansta,0,0,0,0,0,0,0,1,0,0,0,0,0,0,0,0,0,0,1,0,0,0,0,0,1,0,0,0,0,0,0,0,1,0,0,0,0,0,0,0,0,0,0,0,0,0,0,0,53.51241,-130.24745,0,1977,Rankin_et_al_1983,DFO_Pacific_Station,1
47,Owikeno,1,0,0,0,0,0,0,1,0,0,0,0,0,0,0,0,0,0,1,1,0,0,0,0,1,0,0,0,1,1,0,0,0,0,0,0,0,0,0,0,1,0,0,0,0,0,0,0,51.66975,-126.85939,0,1978,Rankin_Ashton_1980,DFO_Pacific_Station,1
48,Long1,1,0,0,0,0,0,0,1,0,0,0,0,0,0,0,0,0,0,1,0,0,0,1,0,1,0,0,0,0,1,0,0,1,0,0,0,0,0,0,0,0,0,0,0,1,0,0,1,51.2551,-127.0379,0,1978,Rankin_et_al_1983,DFO_Pacific_Station,2
49,KitsumKalum,0,0,0,0,0,0,0,0,0,0,0,0,0,0,0,0,0,0,1,0,0,0,1,0,0,0,0,0,0,0,0,0,0,0,0,0,0,0,1,0,0,0,0,0,0,0,0,0,54.75668,-128.79109,1,NA,Patalas_et_al_1994,Patalas,1
50,Alastair,1,0,1,0,0,0,0,1,0,1,0,0,0,1,1,0,0,1,1,0,0,0,1,0,1,0,0,0,0,0,0,0,1,1,0,0,0,0,0,1,0,0,0,1,0,0,0,0,54.10986,-129.18055,0,1978,Rankin_et_al_1983,DFO_Pacific_Station,2
51,Khtada,1,0,0,0,0,0,0,1,0,0,0,0,0,0,0,0,0,0,1,0,0,0,0,0,0,0,0,0,1,0,0,0,1,0,0,0,0,0,0,0,0,0,0,1,0,0,0,0,54.12696,-129.46474,0,NA,Patalas_et_al_1994,Patalas,1
52,Lakelse,0,0,0,0,0,0,0,1,0,1,0,0,0,0,1,1,1,0,0,0,0,0,1,1,1,1,0,0,0,0,0,0,1,0,0,0,0,0,0,0,0,0,0,0,0,0,0,0,54.38142,-128.55916,1,1952,McMahon_1954,DFO_Pacific_Station,5
53,Morice,0,0,0,0,0,0,0,1,0,0,0,0,0,0,1,0,0,0,1,0,1,0,1,0,1,0,0,0,0,1,0,0,1,1,0,0,0,0,1,0,0,0,0,0,0,0,0,0,54.00345,-127.61504,0,1978,Rankin_et_al_1983,DFO_Pacific_Station,3
54,Nanika,0,0,0,0,0,0,0,1,0,0,0,0,0,0,0,0,1,0,0,0,0,0,1,0,1,0,0,1,0,1,0,0,0,0,0,0,0,0,0,0,0,0,0,0,0,0,0,0,53.7823,-127.65155,0,NA,Patalas_et_al_1994,Patalas,1
56,Wheeler,0,0,0,0,0,0,0,1,0,0,0,0,0,0,1,0,0,0,0,0,0,0,0,0,0,0,0,0,0,0,0,1,0,1,0,0,1,0,0,0,0,0,0,0,0,0,0,0,59.6932,-129.1629,0,1975,Lindsey_et_al_1981,Patalas,1
57,Dease,0,0,0,0,0,0,0,1,0,0,0,0,0,0,0,0,1,0,0,0,0,0,0,0,0,0,0,0,0,0,0,0,0,0,0,0,0,0,1,0,0,0,0,0,0,0,0,0,58.62974,-130.04686,0,1945,Hooper_1947,Hooper,1
58,Smart,0,0,0,0,0,0,0,0,0,0,0,0,0,0,1,0,0,0,0,1,0,0,0,0,0,0,0,0,0,0,0,1,0,1,0,0,0,0,0,0,0,0,0,0,0,0,0,0,59.9402,-131.77489,0,1975,Lindsey_et_al_1981,Patalas,1
59,Morley,0,0,0,0,0,0,0,1,0,0,0,0,0,0,1,0,0,0,1,0,0,0,0,0,0,0,0,0,0,0,0,1,1,1,0,0,0,0,0,0,0,0,0,0,0,0,0,0,60.01715,-132.08665,0,1975,Lindsey_et_al_1981,Patalas,1
60,Teslin,0,0,0,0,0,0,0,0,0,1,0,0,0,1,0,0,0,0,0,0,0,0,0,0,0,0,0,0,0,0,0,1,0,1,0,0,1,0,0,0,0,0,0,0,0,0,0,0,59.91327,-132.34922,0,1944,Clemens_et_al_1968,DFO_Pacific_Station,1
61,Palmer,0,0,0,0,0,0,0,1,0,1,0,0,0,0,1,1,0,0,1,0,0,0,0,0,0,0,0,0,0,0,0,0,0,1,0,0,0,0,0,0,0,0,0,0,0,0,0,0,59.44027,-133.57575,0,1970,Lindsey_et_al_1981,Patalas,2
62,Atlin,0,0,0,0,0,0,0,0,0,0,0,0,0,0,1,0,0,0,0,1,0,0,0,0,0,0,0,0,0,0,0,1,0,1,0,0,0,0,0,0,0,0,0,0,0,0,0,0,59.49779,-133.72403,0,1970,Lindsey_et_al_1981,Patalas,1
63,Snafu,0,0,0,0,0,0,0,0,0,0,0,0,0,0,1,0,0,1,1,0,0,0,0,0,0,0,0,0,0,0,0,1,0,1,0,0,0,0,0,0,0,0,0,0,0,0,0,0,60.18277,-133.43717,0,1975,Lindsey_et_al_1981,Patalas,1
64,Little Atlin,0,0,0,0,0,0,0,1,0,0,0,0,0,0,1,0,0,1,1,0,0,0,0,0,0,0,0,0,0,0,0,1,0,1,0,0,0,0,0,0,0,0,0,0,0,0,0,0,60.25963,-133.97006,0,1970,Lindsey_et_al_1981,Patalas,1
65,Lower Snafu,0,0,0,0,0,0,0,1,0,0,0,0,0,1,1,0,0,1,1,0,0,0,0,0,0,0,0,0,0,0,0,1,0,1,0,0,0,0,0,1,0,0,0,0,0,0,0,0,60.10145,-133.70996,0,1975,Lindsey_et_al_1981,Patalas,1
66,Tarfu,0,0,0,0,0,0,0,0,0,0,0,0,0,0,1,0,0,0,0,1,0,0,0,0,0,0,0,0,0,0,0,1,0,1,0,0,1,0,0,0,0,0,0,0,0,0,0,0,60.05552,-133.72026,0,1975,Lindsey_et_al_1981,Patalas,1
67,Trembleur,0,0,0,0,0,0,0,1,0,0,0,0,0,0,1,0,0,0,0,0,1,0,0,0,0,0,0,0,0,0,0,0,0,0,0,0,0,0,1,0,0,0,0,0,0,0,0,0,54.85678,-125.09827,0,1977,Rankin_et_al_1983,DFO_Pacific_Station,1
68,Stuart,1,0,0,0,0,0,0,0,0,0,0,0,0,0,1,0,0,0,0,0,1,0,0,0,1,0,0,0,0,0,0,0,0,0,0,0,0,0,1,1,0,0,0,0,0,0,0,0,54.53674,-124.50733,0,1977,Rankin_et_al_1983,DFO_Pacific_Station,1
69,Takla,1,0,0,0,0,0,0,1,0,0,0,0,0,0,1,0,0,0,1,0,0,0,0,0,0,0,0,0,0,0,0,0,1,0,0,0,0,0,1,0,0,0,0,0,0,0,0,0,55.39553,-125.85566,0,1977,Rankin_et_al_1983,DFO_Pacific_Station,1
70,Maxan,0,0,0,0,0,0,0,0,0,0,0,0,0,0,1,0,0,1,1,0,1,0,0,0,1,0,0,0,0,0,0,0,0,0,0,0,0,0,0,1,0,0,0,0,0,0,0,0,54.29742,-126.09147,0,NA,Patalas_et_al_1994,Patalas,1
71,Day,0,0,0,0,0,0,0,0,0,0,0,0,0,0,0,0,0,1,1,0,1,0,1,0,1,0,0,0,0,0,0,0,0,0,0,0,0,0,0,1,0,0,0,0,0,0,0,0,54.38992,-126.26064,0,NA,Patalas_et_al_1994,Patalas,1
72,Kathlyn,0,0,0,0,0,0,0,0,0,0,0,0,0,0,0,0,0,1,1,0,0,0,1,0,1,0,0,0,0,0,0,0,0,0,0,0,0,0,0,0,0,0,0,0,0,0,0,0,54.82455,-127.20612,1,NA,Patalas_et_al_1994,Patalas,1
73,Seymour,0,0,0,0,0,0,0,0,0,0,0,0,0,0,1,0,0,1,0,0,0,0,0,0,0,0,0,0,0,0,0,0,0,0,0,0,0,0,0,0,0,0,0,0,0,0,0,0,54.74414,-127.15964,1,NA,Patalas_et_al_1994,Patalas,1
74,Babine,1,0,0,0,0,0,0,1,0,0,0,0,0,0,1,0,1,1,1,0,0,0,1,0,1,0,0,0,0,0,0,1,1,1,0,0,0,0,0,1,0,0,0,1,0,0,0,0,54.7967,-126.02721,1,1977,Rankin_et_al_1983,DFO_Pacific_Station,4
75,Nilkitkwa,0,0,0,0,0,0,0,1,0,0,0,0,0,0,1,0,1,1,1,0,0,0,1,0,1,0,0,0,0,0,0,1,1,1,0,0,0,0,0,1,0,0,0,1,0,0,0,0,55.37705,-126.66076,0,1962,Johnson_1965,DFO_Pacific_Station,3
76,Morrison,0,0,0,0,0,0,0,0,0,0,0,0,0,0,1,0,0,1,0,0,1,0,0,0,1,0,0,0,0,0,0,1,1,1,0,0,0,0,0,0,0,0,0,0,0,0,0,0,55.23981,-126.37211,0,1977,Rankin_et_al_1983,DFO_Pacific_Station,3
77,Haul,0,0,0,0,0,0,0,0,0,0,0,0,0,0,1,0,0,1,1,0,0,0,0,0,1,0,0,0,0,0,0,1,1,0,0,0,0,0,1,0,0,0,0,0,0,0,0,0,55.32213,-126.52332,0,NA,Patalas_et_al_1994,Patalas,1
78,Motase,0,0,0,0,0,0,0,0,0,0,0,0,0,0,1,0,0,0,0,0,0,0,0,0,0,0,0,0,0,0,0,0,0,0,0,0,0,0,0,0,0,0,0,0,0,0,0,0,56.03667,-127.04712,0,NA,Patalas_et_al_1994,Patalas,1
79,Canyon,0,0,0,0,0,0,0,0,0,0,0,0,0,0,1,0,0,0,0,0,0,0,0,0,0,0,0,0,0,0,0,0,0,0,0,0,0,0,0,0,0,0,0,0,0,0,0,0,56.26236,-128.15377,0,NA,Patalas_et_al_1994,Patalas,1
80,Kitwanga,0,0,0,0,0,0,0,0,0,0,0,0,0,0,0,0,0,1,1,0,0,0,1,0,0,0,0,0,0,0,0,0,0,0,0,0,0,0,1,1,0,0,0,0,0,0,0,0,55.37831,-128.12027,0,NA,Patalas_et_al_1994,Patalas,1
81,Stephens,0,0,0,0,0,0,0,1,0,0,0,0,0,0,1,0,0,1,0,0,0,0,0,1,0,0,0,0,0,0,0,1,1,1,0,0,0,0,0,1,0,0,0,0,0,0,0,0,55.78052,-128.59194,0,1978,Rankin_Ashton_1980,DFO_Pacific_Station,3
82,Swan1,0,0,0,0,0,0,0,1,0,0,0,0,0,0,1,0,0,1,0,0,0,0,0,0,0,0,0,0,0,0,0,1,1,1,0,0,0,0,0,1,0,0,0,1,0,1,0,0,55.78332,-128.6596,0,1978,Rankin_Ashton_1980,DFO_Pacific_Station,1
83,Johanson,0,0,0,0,0,0,0,0,0,1,0,0,0,0,1,0,0,0,1,0,0,0,0,0,0,0,0,0,0,0,0,0,1,0,0,0,0,0,0,0,0,0,0,0,0,0,0,0,56.58472,-126.17894,0,NA,Patalas_et_al_1994,Patalas,1
84,Sustut,0,0,0,0,0,0,0,0,0,1,0,0,0,1,1,0,0,0,1,0,0,0,1,0,0,0,0,0,0,0,0,0,0,0,0,0,0,0,0,0,0,0,0,0,0,0,0,0,56.57291,-126.45295,0,NA,Patalas_et_al_1994,Patalas,1
85,Bear,0,0,0,0,0,0,0,1,0,0,0,0,0,0,1,0,0,1,0,0,1,0,0,0,1,0,0,0,0,0,0,1,1,1,0,0,0,0,0,1,0,0,0,1,0,0,0,1,56.14662,-126.84139,0,1978,Rankin_et_al_1983,DFO_Pacific_Station,3
86,Damdochax,0,0,0,0,0,0,0,0,0,0,0,0,0,0,1,0,0,0,1,0,0,0,0,0,0,0,0,0,0,0,0,0,0,0,0,0,0,0,0,0,0,0,0,0,0,0,0,0,56.50702,-128.09993,0,1977,Rankin_et_al_1983,DFO_Pacific_Station,1
87,Fred Wright,0,0,0,0,0,0,0,1,0,0,0,0,0,0,1,1,0,1,0,0,0,0,0,0,0,0,0,0,0,0,0,1,1,1,0,0,0,0,0,0,0,0,0,1,0,0,0,0,55.97086,-128.75732,0,1978,Rankin_et_al_1983,DFO_Pacific_Station,2
88,Meziadin,0,0,0,0,0,0,0,1,0,1,0,0,0,0,1,1,1,1,0,0,0,0,1,0,0,0,0,0,0,0,0,1,1,0,0,0,0,1,1,0,0,0,0,1,0,0,0,1,56.06473,-129.30259,0,1978,Rankin_et_al_1983,DFO_Pacific_Station,4
89,Bowser,0,0,0,0,0,0,0,0,0,0,0,0,0,0,1,0,0,0,0,0,0,0,0,0,0,0,0,0,0,0,0,0,0,0,0,0,0,0,0,0,0,0,0,0,0,0,0,0,56.45744,-129.59006,0,1977,Rankin_et_al_1983,DFO_Pacific_Station,1
90,Christina,0,0,0,0,0,0,0,1,0,0,0,0,0,0,1,0,0,0,0,0,1,0,0,0,0,0,0,0,0,0,0,0,0,0,0,0,0,0,0,0,0,0,0,0,0,0,0,1,57.23556,-131.90281,0,1977,Rankin_et_al_1983,DFO_Pacific_Station,1
91,Tahltan,0,0,0,0,0,0,0,1,0,0,0,0,0,0,1,0,0,0,1,0,0,0,0,0,0,0,0,0,0,0,0,0,0,0,0,0,0,0,0,0,0,0,0,0,0,0,0,0,57.96279,-131.61617,0,1977,Rankin_et_al_1983,DFO_Pacific_Station,1
92,Chutine,0,0,0,0,0,0,0,1,0,0,0,0,0,0,1,0,0,0,0,0,1,0,0,0,0,0,0,0,0,0,0,0,0,0,0,0,0,0,0,0,0,0,0,0,0,0,0,0,57.75679,-132.39458,0,1977,Rankin_et_al_1983,DFO_Pacific_Station,1
93,Kingsalmon,0,0,0,0,0,0,0,1,0,0,0,0,0,0,1,0,0,0,1,0,0,0,0,0,0,0,0,0,0,0,0,0,0,0,0,0,0,0,0,0,0,0,0,1,0,0,0,0,58.71592,-132.91076,0,1977,Rankin_et_al_1983,DFO_Pacific_Station,1
94,Kuthai,1,0,0,0,0,0,0,1,0,0,0,0,0,0,1,0,0,0,1,0,0,0,0,0,0,0,0,0,0,0,0,0,0,0,0,0,0,0,0,0,0,0,0,0,0,0,0,0,59.23423,-133.26295,0,1977,Rankin_et_al_1983,DFO_Pacific_Station,1
95,Trapper,1,0,0,0,0,0,0,0,0,0,0,0,0,0,1,0,0,0,0,0,1,0,0,0,0,0,0,0,0,0,0,0,0,0,0,0,0,0,0,0,0,0,0,0,0,0,0,0,58.46384,-132.62804,0,1977,Rankin_et_al_1983,DFO_Pacific_Station,1
96,Kennicot,0,0,0,0,0,0,0,1,0,0,0,1,0,0,1,0,0,0,1,0,0,0,0,0,0,0,0,0,0,0,0,0,0,0,0,0,0,0,0,0,0,0,0,0,0,0,0,0,58.17461,-131.55575,0,1977,Rankin_et_al_1983,DFO_Pacific_Station,1
97,Tatsamenie,0,0,0,0,0,0,0,1,0,0,0,0,0,0,1,0,0,0,1,0,1,0,0,0,0,0,0,0,0,0,0,0,0,0,0,0,0,0,0,0,0,0,0,0,0,0,0,0,58.33131,-132.34451,0,1977,Rankin_et_al_1983,DFO_Pacific_Station,1
98,Azouzetta,0,0,0,0,0,0,0,0,0,0,0,0,0,0,1,0,1,0,1,0,0,0,1,0,0,0,0,0,0,0,0,0,0,0,0,0,0,0,0,0,0,0,0,0,0,0,0,0,55.38754,-122.61256,1,NA,Patalas_et_al_1994,Patalas,1
99,R11 Pond,1,0,0,0,0,0,0,0,0,0,0,0,0,1,0,0,1,0,0,0,0,0,0,0,0,0,0,0,0,0,0,0,1,0,0,0,0,0,0,0,0,0,0,0,0,0,0,0,51.05540909,-118.0627358,0,1982,Donald_Alger_1984b,EC_CWS,1
100,Heather Lake,1,0,0,0,0,0,0,0,0,0,0,0,0,1,0,0,0,0,0,0,1,0,0,0,0,0,0,0,0,0,0,0,1,0,0,0,0,0,0,0,0,0,0,0,0,0,0,0,51.04766889,-118.1424931,1,1982,Donald_Alger_1984b,EC_CWS,2
101,R14 Pond,0,0,0,0,0,0,0,0,0,0,0,0,0,0,0,0,0,0,0,0,0,0,0,0,0,0,0,1,0,0,0,0,0,0,0,0,0,0,0,0,0,0,0,0,0,0,0,0,51.08221729,-117.9771175,1,1982,Donald_Alger_1984b,EC_CWS,1
102,R13 Pond,0,0,0,0,0,0,0,0,0,0,0,0,0,0,0,0,0,0,0,0,0,0,0,0,0,0,0,1,0,0,1,0,0,0,0,0,0,0,0,0,0,0,0,0,0,0,0,0,51.07466169,-117.9773295,1,1982,Donald_Alger_1984b,EC_CWS,1
103,R17 Pond,0,0,0,0,0,0,0,0,0,0,0,0,0,0,0,0,0,0,0,0,0,0,0,0,0,0,0,0,0,0,1,0,0,0,0,0,0,0,0,0,0,0,0,0,0,0,0,0,51.11615538,-118.0057506,0,1983,Donald_Alger_1984b,EC_CWS,1
104,R18 Pond,0,0,0,0,0,0,0,0,0,0,0,0,0,0,0,0,0,0,0,0,0,0,0,0,0,0,0,0,0,0,1,0,0,0,0,0,0,0,0,0,0,0,0,0,0,0,0,0,51.11917893,-118.0065593,0,1983,Donald_Alger_1984b,EC_CWS,1
105,R15 Pond,1,1,0,0,0,0,0,0,0,0,0,0,0,0,0,0,0,0,0,0,0,0,0,0,0,0,0,0,0,0,0,0,1,0,0,0,0,0,0,0,0,0,0,0,0,0,0,0,51.07484511,-117.9715093,0,1982,Donald_Alger_1984b,EC_CWS,1
106,Balsam Lake (East),1,0,0,0,0,0,0,0,0,0,0,0,0,1,0,0,0,0,0,0,1,0,0,0,0,0,0,0,0,0,0,0,0,0,0,0,0,0,0,0,0,0,0,0,0,0,0,0,51.04074034,-118.1493264,0,1982,Donald_Alger_1984b,EC_CWS,3
107,Jade Lake (Lower),1,0,0,0,1,0,0,0,0,0,0,0,0,0,0,0,0,0,0,0,0,0,0,0,0,0,0,0,0,0,0,0,1,0,0,0,0,0,0,0,0,0,1,0,0,0,0,0,51.07542312,-118.0700462,1,1981,Donald_Alger_1984b,EC_CWS,3
108,Jade Lake (Upper),1,0,0,0,0,0,0,0,0,0,0,0,0,0,0,0,0,0,0,0,0,0,0,0,0,0,0,0,0,0,0,0,1,0,0,0,0,0,0,0,0,0,1,0,0,0,0,0,51.07016627,-118.0764764,1,1981,Donald_Alger_1984b,EC_CWS,4
109,Marion Lake,1,0,0,0,0,0,0,0,0,0,0,0,0,1,0,0,0,0,0,0,1,0,0,0,0,0,0,0,0,0,0,0,0,0,0,0,0,0,0,0,0,0,0,0,0,0,1,0,51.25949286,-117.5086327,0,1981,Donald_Alger_1984b,EC_CWS,3
110,Balsam Lake (West),1,0,0,0,0,0,0,0,0,0,0,0,0,1,0,0,0,0,0,0,1,0,0,0,0,0,0,0,0,0,0,0,1,0,0,0,0,0,0,0,0,0,0,0,0,0,0,0,51.04085845,-118.1537656,0,1982,Donald_Alger_1984b,EC_CWS,2
111,Schuss Lake (AKA Fidelity),0,0,0,0,0,0,0,0,0,0,0,0,0,1,0,0,0,0,0,0,0,0,1,0,0,0,0,1,0,0,0,0,0,0,0,0,0,0,0,0,0,0,0,0,0,0,0,0,51.24030395,-117.7075739,1,1982,Donald_Alger_1984b,EC_CWS,2
113,Pond R23,0,0,0,0,0,0,0,0,0,0,0,0,0,1,0,0,1,0,0,0,0,0,0,0,0,0,0,0,0,0,0,0,0,0,0,0,0,0,0,0,0,0,0,1,0,0,0,0,51.03366901,-118.1641552,0,1972,Anderson_1974,EC_CWS,1
115,Millar Lake,1,0,0,0,0,0,0,0,0,0,0,0,0,0,0,0,0,0,0,0,0,0,0,0,0,0,0,0,0,0,0,0,1,0,0,0,0,0,0,0,0,0,1,0,0,0,0,0,51.07014981,-118.1052081,1,1981,Donald_Alger_1984b,EC_CWS,4
116,Eva Lake,1,0,0,0,0,0,0,0,0,0,0,0,0,0,0,0,0,0,0,0,0,0,0,0,0,0,0,0,0,0,0,0,1,0,0,0,0,0,0,0,0,0,0,0,0,0,0,0,51.08151087,-118.1086625,1,1981,Donald_Alger_1984b,EC_CWS,4
117,G16 Pond,0,0,0,0,0,0,0,0,0,0,0,0,0,0,0,0,0,0,0,0,0,0,0,0,0,0,0,0,0,0,1,0,0,0,0,0,0,0,1,0,0,0,0,0,0,0,0,0,51.30607721,-117.3442704,0,1982,Donald_Alger_1984b,EC_CWS,1
119,G7 Pond,1,0,0,0,0,0,0,0,0,0,0,0,0,0,0,0,0,0,0,0,0,0,0,0,0,0,0,0,0,0,0,0,0,0,0,0,0,0,0,0,0,0,0,0,0,0,0,0,51.17180427,-117.3879844,0,1982,Donald_Alger_1984b,EC_CWS,1
121,G13 Pond,0,1,0,0,0,0,0,0,0,0,0,0,0,1,0,0,1,0,1,0,0,0,0,0,0,1,0,0,0,0,0,0,0,0,0,0,0,0,0,0,1,0,0,0,0,0,1,0,51.24023783,-117.3589493,0,1982,Donald_Alger_1984b,EC_CWS,1
122,Wood Lake,0,0,0,0,0,0,0,0,0,0,0,0,0,0,0,0,1,0,1,0,0,0,1,1,1,0,0,0,0,0,0,0,0,0,0,0,0,0,0,1,0,0,0,0,0,0,0,0,50.08063,-119.39062,1,1971,Patalas_Salki_1973,Patalas,3
123,Beaver,0,0,0,0,0,0,0,0,0,0,0,0,0,0,0,0,1,0,0,0,0,0,0,0,0,0,0,1,0,0,0,0,1,0,0,0,0,0,0,0,0,0,0,0,0,0,0,0,50.05203,-119.23215,1,1935,Clemens_et_al_1939,DFO_Pacific_Station,1
124,Chute,0,0,0,0,0,0,0,0,0,0,0,0,0,0,0,0,1,0,0,0,0,0,0,1,0,0,0,1,0,0,0,0,0,0,0,0,0,0,1,0,0,0,0,1,0,0,0,0,49.6942,-119.53086,1,1935,Clemens_et_al_1939,DFO_Pacific_Station,1
125,Okanagan,1,0,1,0,0,0,0,1,0,1,0,0,0,1,0,0,1,1,1,0,1,1,1,1,1,0,1,0,0,0,0,0,1,0,0,0,0,0,0,1,0,1,0,0,1,1,0,0,49.83385,-119.52361,1,1971,Patalas_Salki_1973,Patalas,5
126,Kalamalka,1,0,0,0,0,0,0,1,0,1,0,0,0,0,0,0,1,1,1,0,1,0,1,1,1,0,0,0,0,0,0,0,0,0,0,0,0,0,1,1,0,0,0,0,1,0,0,0,50.17369,-119.33083,1,1971,Patalas_Salki_1973,Patalas,3
128,Osoyoos,1,0,0,0,0,0,0,0,0,1,0,0,0,0,0,0,0,1,1,0,1,1,1,1,1,0,0,0,0,0,0,0,0,0,0,0,0,0,0,1,0,0,0,0,0,0,0,0,49.05552,-119.47991,1,1971,Patalas_Salki_1973,Patalas,3
129,Madden,0,0,0,0,0,0,0,1,0,1,0,1,0,0,0,0,1,0,0,0,1,0,1,0,0,0,0,0,0,0,0,0,0,0,0,0,0,0,0,0,0,0,0,0,0,0,0,0,49.23175,-119.62556,1,NA,Patalas_et_al_1994,Patalas,1
130,Duck,0,0,0,0,0,0,0,0,0,0,0,0,0,0,0,0,1,0,0,0,0,0,0,1,0,0,0,0,0,0,0,0,0,0,0,0,0,0,0,0,0,0,0,0,0,0,0,0,49.993,-119.39548,0,1935,Clemens_et_al_1939,DFO_Pacific_Station,1
131,Skaha,1,0,0,0,0,0,0,1,0,1,0,0,0,0,0,0,0,1,1,0,1,1,1,1,1,0,0,0,0,0,0,0,0,0,0,0,0,0,0,1,0,0,0,0,0,0,0,0,49.41964,-119.58764,1,1971,Patalas_Salki_1973,Patalas,3
132,Misezula,0,0,0,0,0,0,0,0,0,1,0,0,0,0,0,0,1,0,1,0,1,0,1,0,0,0,0,0,0,0,0,0,0,0,0,0,0,0,1,1,0,0,0,0,0,0,0,0,49.7815,-120.51095,1,NA,Patalas_et_al_1994,Patalas,1
134,Kootenay Lake,0,0,0,0,0,0,0,1,0,0,0,0,0,0,0,0,0,1,0,0,0,0,1,1,1,0,0,0,0,1,0,0,0,0,0,0,0,0,0,1,0,0,0,0,1,0,0,0,49.57009,-116.83124,1,1964,Zyblut_1970,Zyblut,2
135,Hahas,1,0,0,0,0,0,0,0,0,1,0,1,0,0,0,0,0,0,0,0,0,0,0,1,0,0,0,0,0,0,0,0,0,0,0,0,0,0,0,0,0,0,0,0,0,0,0,0,49.74623,-115.8267,1,NA,Patalas_et_al_1994,Patalas,1
136,K36 Pond (Lower Storm Lake),1,0,0,0,0,0,0,0,0,0,0,0,0,0,0,0,0,0,0,1,0,0,0,0,0,0,0,1,0,0,0,0,0,0,0,0,0,0,0,0,0,0,0,0,0,0,0,0,51.21405262,-116.0266663,0,1981,Donald_Alger_1984a,EC_CWS,1
137,Storm Lake (Upper),1,0,0,0,0,0,0,0,0,0,0,0,0,0,0,0,0,0,0,1,0,0,0,0,0,0,0,1,0,0,0,0,0,0,0,0,0,0,0,0,0,0,0,0,0,0,0,0,51.21619213,-116.0201207,0,1981,Donald_Alger_1984a,EC_CWS,2
138,K24 Pond (Little Kootenay Pond),1,1,0,0,1,0,0,0,0,0,0,1,0,1,0,0,1,0,0,0,1,0,0,1,0,1,0,0,0,0,0,0,0,0,0,0,0,0,0,0,0,1,0,1,1,0,1,0,50.90292248,-116.0362545,0,1981,Donald_Alger_1984a,EC_CWS,2
140,Daer Lake,1,1,1,0,0,0,0,0,0,0,0,0,1,1,0,0,1,0,0,0,1,0,0,0,0,1,1,0,0,0,0,0,0,0,0,0,0,0,0,0,0,0,0,1,1,1,0,0,50.79678791,-115.9498953,1,2013,Loewen_Vinebrooke_2016,Vinebrooke,2
141,K13 Pond,1,1,0,0,0,0,0,0,0,0,0,1,0,0,0,0,0,0,0,0,1,0,0,1,0,1,0,0,0,0,0,0,0,0,0,0,0,0,0,0,0,0,0,0,0,0,0,0,50.88237183,-116.0828937,0,1996,Donald_et_al_2001,EC_CWS,2
142,K4 Pond,0,1,1,0,0,1,0,0,0,0,0,1,0,1,0,0,1,0,0,0,0,0,0,0,0,0,1,0,0,0,0,0,0,0,0,0,0,0,0,0,0,1,0,1,1,1,0,0,50.77438167,-115.9247542,1,2013,Loewen_Vinebrooke_2016,Vinebrooke,2
143,K16 Pond,0,1,0,0,0,0,0,0,0,0,0,0,0,1,0,0,0,0,0,0,1,0,0,0,0,0,0,0,0,0,0,0,0,0,0,0,0,0,0,0,1,0,0,0,0,0,1,0,50.87163808,-116.0540827,0,1981,Donald_Alger_1984a,EC_CWS,1
144,Nixon Pond,1,1,0,0,1,0,0,0,0,0,0,0,1,1,0,0,1,0,0,0,1,1,0,1,0,0,1,0,0,0,0,0,0,0,0,0,0,0,1,0,1,0,0,1,1,0,0,0,50.73887748,-115.932682,0,1981,Donald_Alger_1984a,EC_CWS,2
145,K20 Pond,0,1,0,0,0,0,0,0,0,0,0,0,0,1,0,0,0,0,0,0,1,0,0,1,0,1,0,0,0,0,0,0,0,0,0,0,0,0,0,0,0,0,1,0,0,0,0,0,50.83494383,-116.03615,0,1996,Donald_et_al_2001,EC_CWS,2
146,Cobb Lake,0,0,0,0,1,0,0,0,0,0,0,0,0,1,0,0,1,0,0,0,1,0,1,1,0,1,1,0,0,0,0,0,0,0,0,0,0,0,1,0,1,1,1,0,1,0,0,0,50.66073489,-115.8762605,1,1982,Donald_Alger_1984a,EC_CWS,4
147,Kaufmann Lake,1,0,0,0,1,0,0,0,0,0,0,0,0,0,0,0,0,0,0,0,0,0,0,0,0,0,0,0,0,0,0,0,0,0,0,0,0,0,0,0,0,0,0,0,0,0,0,0,51.27042315,-116.2372472,1,1981,Donald_Alger_1984a,EC_CWS,1
148,Larix Lake,0,0,0,0,0,0,0,0,0,1,0,0,0,0,0,0,0,0,0,0,1,0,0,0,0,0,0,1,0,0,0,0,0,0,0,0,0,0,1,0,0,0,0,0,0,0,0,0,51.05536786,-115.7862873,1,2009,MacLennan_et_al_2015,Vinebrooke,2
149,Olive Lake,1,0,0,0,0,0,0,0,0,0,0,0,0,1,0,0,0,0,0,0,0,0,1,0,0,1,0,0,0,0,0,0,0,0,0,0,0,0,0,0,1,0,0,0,1,0,0,0,50.67392933,-115.9347784,1,1982,Donald_Alger_1984a,EC_CWS,4
150,Grizzly Lake,0,0,0,0,0,0,0,0,0,0,0,0,0,0,0,0,0,0,0,0,1,0,0,0,0,1,0,0,0,0,0,0,0,0,0,0,0,0,1,0,0,0,0,0,0,0,0,0,51.05814933,-115.7943626,1,2009,MacLennan_et_al_2015,Vinebrooke,2
151,White Swan,1,0,0,0,0,0,0,0,0,0,0,0,0,0,0,0,1,0,0,0,0,0,0,0,0,0,0,0,0,0,0,0,0,0,0,0,0,0,0,0,0,0,0,0,0,0,0,0,50.14164,-115.47924,1,NA,Patalas_et_al_1994,Patalas,1
152,Floe Lake,1,0,0,0,0,0,0,0,0,0,0,0,0,1,0,0,0,0,0,0,0,0,0,0,0,0,0,1,0,0,0,0,0,0,0,0,0,0,0,0,0,0,1,0,0,0,0,0,51.05268724,-116.1422259,1,1981,Donald_Alger_1984a,EC_CWS,3
153,Dog Lake,1,1,1,0,0,0,0,0,0,1,0,1,1,1,0,0,1,0,0,0,0,0,0,1,0,1,1,0,0,0,0,0,0,0,0,0,0,0,1,0,1,0,0,1,1,1,0,0,50.78069765,-115.9289642,1,2013,Loewen_Vinebrooke_2016,Vinebrooke,3
154,Talc Lake,0,0,0,0,0,0,0,0,0,0,0,0,0,0,0,0,0,0,0,0,1,0,0,0,0,0,0,1,0,0,0,0,0,0,0,0,0,0,0,0,0,0,0,0,0,0,0,0,51.08200433,-115.8959657,1,1981,Donald_Alger_1984a,EC_CWS,1
155,Rock Isle Lake,1,0,0,0,0,0,0,0,0,1,0,0,0,1,0,0,0,0,0,0,0,0,0,0,0,0,0,0,0,0,0,0,0,0,0,0,0,0,1,0,0,0,0,0,0,0,0,0,51.06255611,-115.7831167,1,2009,MacLennan_et_al_2015,Vinebrooke,2
156,Kootenay Pond,1,1,0,0,0,0,0,0,0,0,0,1,0,0,0,0,0,0,0,0,1,1,0,1,0,1,0,0,0,0,0,0,0,0,0,0,0,0,1,0,1,0,0,0,0,0,0,0,50.89245732,-116.0420301,1,2013,Loewen_Vinebrooke_2016,Vinebrooke,5
157,Windermere,0,0,0,0,0,0,0,0,0,1,0,0,0,0,0,0,0,0,0,0,0,0,1,0,0,0,0,0,0,0,0,0,0,0,0,0,0,0,0,0,0,0,0,0,0,0,0,0,50.47494,-116.00711,1,NA,Patalas_et_al_1994,Patalas,1
158,Columbia,0,0,0,0,0,0,0,0,0,0,0,1,1,0,0,0,1,0,0,0,0,0,1,1,0,0,0,0,0,0,0,0,0,0,0,0,0,0,1,0,0,0,0,0,0,1,0,0,50.18126,-115.83564,1,NA,Patalas_et_al_1994,Patalas,1
159,LE4,0,0,0,0,0,0,0,0,0,0,0,0,0,0,0,0,0,0,0,0,0,0,0,0,0,0,0,0,0,0,0,0,0,0,0,0,1,0,0,0,0,0,0,0,0,0,0,0,51.39721,-121.91702,0,1991,Hammer_Forro_1992,Hammer,2
160,LE3,1,0,0,0,0,0,0,0,0,0,0,1,0,0,0,0,0,0,0,0,1,1,0,0,0,0,0,0,0,0,0,0,0,0,0,0,1,0,0,0,0,0,0,0,0,0,0,0,51.39464,-121.92723,0,1991,Hammer_Forro_1992,Hammer,2
161,White,1,0,0,0,0,0,0,0,0,0,0,0,0,0,0,0,0,0,0,0,0,1,0,0,1,1,0,0,0,0,0,0,0,0,0,0,1,0,0,0,0,0,0,0,0,0,0,0,51.39801,-121.88244,0,1991,Hammer_Forro_1992,Hammer,5
163,Meadow,1,0,0,0,0,0,0,0,0,0,0,0,0,0,0,0,0,0,0,0,0,0,0,0,0,0,0,0,0,0,0,0,0,0,0,0,1,0,0,0,0,0,0,0,0,0,0,0,51.36657,-121.7684,1,1991,Hammer_Forro_1992,Hammer,2
164,Rush,0,0,0,0,0,0,0,0,0,0,0,1,0,0,0,0,0,0,0,0,0,0,0,0,0,0,0,0,0,0,0,0,0,0,0,0,1,0,0,0,0,0,0,0,0,0,0,0,51.94002,-122.11953,0,1991,Hammer_Forro_1992,Hammer,2
165,East,1,0,0,0,0,0,0,0,0,0,0,1,0,0,0,0,0,0,0,0,1,0,0,0,0,0,0,0,0,0,0,0,0,0,0,0,1,0,0,0,0,0,0,0,0,0,0,0,51.99013,-122.43177,0,1991,Hammer_Forro_1992,Hammer,2
166,Rock,0,0,0,0,0,0,0,0,0,0,0,1,0,0,0,0,0,0,0,0,1,0,0,0,0,1,0,0,0,0,0,0,0,0,0,0,1,0,0,0,0,0,0,0,0,0,0,0,51.97242,-122.41591,0,1991,Hammer_Forro_1992,Hammer,2
167,Westwick,1,0,0,0,0,0,0,0,0,0,0,1,0,0,0,0,0,0,0,1,1,0,0,0,0,1,0,0,0,0,0,0,0,0,0,0,1,0,0,0,0,0,0,0,1,0,0,0,51.98933,-122.15598,0,1991,Hammer_Forro_1992,Hammer,2
168,Barnes,0,0,0,0,0,0,0,0,0,0,0,0,0,0,0,0,0,0,0,0,0,0,0,0,0,0,0,0,0,0,0,0,0,0,0,0,1,0,0,0,0,0,0,0,0,0,0,0,52.00853,-122.46255,0,1991,Hammer_Forro_1992,Hammer,2
169,Boitano,0,0,0,0,0,0,0,0,0,0,0,0,0,0,0,0,0,0,0,0,0,0,0,0,0,0,0,0,0,0,0,0,0,0,0,0,1,0,0,0,0,0,0,0,0,0,0,0,51.9498,-122.13015,0,1991,Hammer_Forro_1992,Hammer,2
170,Lye,0,0,0,0,0,0,0,0,0,0,0,0,0,0,0,0,0,0,0,0,0,0,0,0,0,0,0,0,0,0,0,0,0,0,0,0,1,0,0,0,0,0,0,0,0,0,0,0,52.01333,-122.49209,0,1991,Hammer_Forro_1992,Hammer,2
171,Roundup,0,0,0,0,0,0,0,0,0,0,0,0,0,0,0,0,0,0,0,0,0,0,0,0,0,0,0,0,0,0,0,0,0,0,0,0,1,0,0,0,0,0,0,0,0,0,0,0,52.03405,-122.51132,0,1991,Hammer_Forro_1992,Hammer,2
172,Pennask,0,0,0,0,0,0,0,0,0,0,0,0,0,0,0,0,1,0,0,0,1,0,0,0,0,0,0,0,0,0,0,0,0,0,0,0,0,0,0,0,0,0,0,0,0,0,0,0,49.99887,-120.12325,1,1931,Rawson_1934,Rawson,1
173,Alleyne,0,0,0,0,0,0,0,0,0,1,0,1,0,0,0,0,1,0,0,0,1,0,1,0,0,0,0,0,0,0,0,0,0,0,0,0,0,0,1,0,0,0,0,0,0,0,0,0,49.91827,-120.56672,1,NA,Patalas_et_al_1994,Patalas,1
174,Kentucky,0,1,0,0,0,0,0,0,0,0,0,0,0,0,0,0,0,0,1,0,1,0,1,0,0,0,0,0,0,0,0,0,0,0,0,0,0,0,1,0,0,0,0,0,0,0,0,0,49.89942,-120.56357,1,NA,Patalas_et_al_1994,Patalas,1
175,Peterhope,0,1,0,0,0,0,0,0,0,1,0,0,0,0,0,0,1,0,0,0,0,1,1,0,0,0,0,0,0,0,0,0,0,0,0,0,0,0,0,0,0,0,0,0,0,0,0,0,50.29559,-120.31663,1,NA,Patalas_et_al_1994,Patalas,1
176,Nicola,0,0,0,0,0,0,0,0,0,1,0,0,0,0,0,0,1,1,1,0,0,1,0,0,1,0,0,0,0,0,0,0,0,0,0,0,0,0,0,1,0,0,0,0,0,0,0,0,50.1773,-120.51514,1,1963,Northcote_Lorz_1966,Northcote,2
177,Stake,0,1,0,0,0,0,0,0,0,0,0,1,0,0,0,0,0,0,0,0,1,0,1,0,0,0,0,0,0,0,0,0,0,0,0,0,0,0,1,0,0,0,0,0,0,0,0,0,50.51261,-120.47893,1,NA,Patalas_et_al_1994,Patalas,1
178,Walloper,0,1,0,0,0,0,0,0,0,0,0,0,0,0,0,0,0,0,0,0,0,1,1,0,0,0,0,0,0,0,0,0,0,0,0,0,0,0,0,0,0,0,0,0,0,0,0,0,50.48245,-120.53392,1,NA,Patalas_et_al_1994,Patalas,1
183,Jacko,0,0,0,0,0,0,0,0,0,0,0,0,0,0,0,0,0,0,0,0,0,1,1,0,0,0,0,0,0,0,0,0,0,0,0,0,0,0,1,0,0,0,0,0,0,0,0,0,50.60976,-120.42148,1,NA,Patalas_et_al_1994,Patalas,1
184,Pillar,0,1,0,0,0,0,0,0,0,0,0,0,0,0,0,0,0,0,0,0,1,0,0,0,0,0,0,0,0,0,0,0,0,0,0,0,0,0,0,0,0,0,1,0,0,0,0,0,50.59646,-119.64267,1,NA,Patalas_et_al_1994,Patalas,1
185,Round,0,0,0,0,0,0,0,0,0,0,0,0,0,0,0,0,0,0,0,0,0,1,1,0,0,0,0,0,0,0,0,0,0,0,0,0,0,0,0,0,0,0,0,0,0,0,0,0,50.42688,-119.32918,1,NA,Patalas_et_al_1994,Patalas,1
186,McConnel,0,0,0,0,0,0,0,0,0,1,0,0,0,0,1,0,0,1,1,0,1,0,1,0,0,0,0,0,0,0,0,0,0,0,0,0,0,0,0,0,0,0,0,0,0,0,0,0,50.52266,-120.45894,1,NA,Patalas_et_al_1994,Patalas,1
187,Ness,0,0,0,0,0,0,0,0,0,1,0,0,0,0,1,0,0,1,1,0,1,0,0,0,1,0,0,0,0,0,0,0,0,0,0,0,0,0,0,0,0,0,0,0,0,0,0,0,54.02343,-123.13066,1,NA,Patalas_et_al_1994,Patalas,1
188,Cobb,0,0,0,0,0,0,0,0,0,0,0,0,0,0,0,0,0,0,0,0,0,0,1,0,0,0,0,0,0,0,0,0,0,0,0,1,0,0,0,1,0,0,0,0,0,0,0,0,53.95271,-123.53755,1,NA,Patalas_et_al_1994,Patalas,1
189,Heffley,0,0,0,0,0,0,0,0,0,0,0,1,0,0,0,0,0,1,0,0,1,0,1,0,1,0,0,0,0,0,0,0,0,0,0,0,0,0,1,1,0,0,0,0,0,0,0,0,50.8318,-120.05411,1,NA,Patalas_et_al_1994,Patalas,1
190,Paul,1,0,0,0,0,0,0,0,0,0,0,0,0,0,0,0,0,0,0,0,1,1,0,0,0,0,1,0,0,0,0,0,0,0,0,0,0,0,1,0,0,0,0,0,1,0,0,0,50.73976,-120.11514,1,1931,Rawson_1934,Rawson,2
192,Pemberton,0,1,0,0,0,0,0,0,0,1,0,1,0,0,0,0,1,0,0,0,1,0,0,0,0,0,0,0,0,0,0,0,0,0,0,0,0,0,1,0,0,0,1,0,0,0,0,0,50.78036,-119.95961,1,NA,Patalas_et_al_1994,Patalas,1
193,Hyas,1,0,0,0,0,0,0,0,0,1,0,0,1,0,0,1,0,0,0,0,1,0,0,0,0,0,0,0,0,0,0,0,0,0,0,0,0,0,0,0,0,0,1,0,0,0,0,0,50.7977,-119.96652,1,NA,Patalas_et_al_1994,Patalas,1
194,Pinantan,1,1,0,0,0,0,0,0,0,1,0,1,1,1,0,0,1,0,0,0,1,0,0,0,0,0,0,0,0,0,0,0,0,0,0,0,0,0,1,0,0,0,0,0,0,0,0,0,50.72398,-120.02406,1,1931,Rawson_1934,Rawson,2
195,Knouff,0,1,0,0,0,0,0,0,0,0,0,0,1,0,0,0,1,0,0,0,1,0,1,1,0,0,0,0,0,0,0,0,0,0,0,0,0,0,1,0,0,0,0,0,0,0,0,0,50.99063,-120.12227,1,NA,Patalas_et_al_1994,Patalas,1
196,Dragon,0,0,0,0,0,0,0,0,0,1,0,0,0,0,0,0,0,1,0,0,0,0,1,0,1,1,0,0,0,0,0,0,0,0,0,0,0,0,0,1,0,0,0,0,0,0,0,0,52.94948,-122.42428,1,NA,Patalas_et_al_1994,Patalas,1
197,Moor Head,0,1,0,0,0,0,0,0,0,0,0,0,0,0,0,0,0,1,0,0,1,1,1,1,0,0,0,0,0,0,0,0,0,0,0,0,0,0,0,0,0,0,0,0,0,0,0,0,52.59492,-121.74708,1,NA,Patalas_et_al_1994,Patalas,1
198,Aleza,0,0,1,0,0,0,0,0,0,0,0,0,1,1,0,0,1,0,0,0,0,0,0,0,0,0,1,0,0,0,0,0,0,0,0,1,0,0,0,0,1,0,0,0,0,1,0,0,54.11534,-122.06447,0,NA,Carl_1940,DFO_Pacific_Station,1
199,Meadow Creek Beaver Pond,1,0,0,0,0,0,0,0,0,0,0,0,0,1,0,0,0,0,0,0,0,0,0,0,0,0,0,0,0,0,0,0,0,0,0,0,0,0,0,0,0,0,0,0,1,0,0,0,50.75571395,-115.9526436,0,1981,Donald_Alger_1984a,EC_CWS,1
205,Crystal Lake,0,0,0,0,0,0,0,0,0,0,0,0,0,0,0,0,0,0,0,0,0,0,0,0,0,0,0,1,0,0,0,0,0,0,0,0,0,0,0,0,0,0,0,0,0,0,0,0,51.42915145,-116.7056828,0,1973,Mudry_Anderson_1975,EC_CWS,2
206,Ottertail Lake,0,0,0,0,0,0,0,0,0,0,0,0,0,0,0,0,0,0,0,0,0,0,0,0,0,1,0,0,0,0,0,0,0,0,0,0,0,0,0,0,1,0,0,0,0,1,0,0,51.29740622,-116.5855274,1,1974,Mudry_Anderson_1975,EC_CWS,1
207,Otto Lake,0,0,0,0,0,0,0,0,0,0,0,0,0,0,0,0,0,0,0,0,0,0,0,0,0,0,0,1,0,0,0,0,0,0,0,0,0,0,0,0,0,0,0,0,0,0,0,0,51.47439289,-116.7181057,0,1973,Mudry_Anderson_1975,EC_CWS,2
208,Schaffer Lake,1,0,0,0,0,0,0,0,0,0,0,0,0,1,0,0,0,0,0,1,1,0,0,0,0,0,0,1,0,0,0,0,0,0,0,0,0,0,1,0,0,0,0,0,0,0,0,0,51.34829022,-116.3496512,1,2009,Fischer_Vinebrooke_Unpublished,Fischer,4
209,Summit Lake,1,0,0,0,1,0,0,0,0,0,0,0,1,1,0,0,0,0,0,0,1,0,0,0,0,1,1,1,0,0,0,0,0,0,0,0,0,0,1,0,1,0,0,1,0,0,1,0,51.45061399,-116.2913385,1,2008,Fischer_Vinebrooke_Unpublished,Fischer,3
211,Celeste Lake,0,0,0,0,0,0,0,0,0,0,0,0,0,1,0,0,0,0,0,0,1,0,0,0,0,0,0,0,0,0,0,0,0,0,0,0,0,0,1,0,0,0,0,0,0,0,0,0,51.51846224,-116.5148196,0,2011,Fischer_Vinebrooke_Unpublished,Fischer,4
212,Hungabee Lake (mid Opabin),0,0,0,0,0,0,0,0,0,0,0,0,0,1,0,0,0,0,0,1,0,0,0,0,0,0,0,1,0,0,0,0,0,0,0,0,0,0,0,0,0,0,0,0,0,0,0,0,51.34339722,-116.319354,0,2013,Fischer_Vinebrooke_Unpublished,Fischer,8
213,Cascade Lake (lower Opabin),1,0,0,0,0,0,0,0,0,0,0,0,0,1,0,0,0,0,0,0,0,0,0,0,0,0,0,0,0,0,0,0,0,0,0,0,0,0,0,0,0,0,0,0,0,0,0,0,51.34439945,-116.3247234,0,1973,Mudry_Anderson_1975,EC_CWS,1
214,Morning Glory (upper),1,0,0,0,0,0,0,0,0,0,0,0,0,1,0,0,0,0,0,0,0,0,0,0,0,0,0,0,0,0,0,0,0,0,0,0,0,0,0,0,0,0,0,0,0,0,0,0,51.36312096,-116.3699095,1,1973,Mudry_Anderson_1975,EC_CWS,1
215,Morning Glory (middle),0,0,0,0,0,0,0,0,0,0,0,0,0,0,0,0,0,0,0,0,0,0,0,0,0,0,0,0,0,0,0,0,0,0,0,0,0,0,1,0,0,0,0,0,0,0,0,0,51.36420586,-116.3643357,1,1973,Mudry_Anderson_1975,EC_CWS,1
216,O'Hara Lake,0,0,0,0,0,0,0,0,0,0,0,0,0,1,0,0,0,0,0,1,1,0,1,0,0,0,0,1,0,0,0,0,0,0,0,0,0,0,0,0,0,0,1,0,0,0,0,0,51.35578286,-116.3308895,1,2013,Fischer_et_al_2015,Fischer,8
217,Opabin Pond (Lake 11),1,0,0,0,0,0,0,0,0,0,0,0,0,1,0,0,0,0,0,0,0,0,0,0,0,0,0,0,0,0,0,0,1,0,0,0,0,0,0,0,0,0,0,0,0,0,0,0,51.344208,-116.321401,0,1973,Mudry_Anderson_1975,EC_CWS,1
218,Ross Lake,1,0,0,0,0,0,0,0,0,1,0,0,0,1,0,0,0,0,0,0,0,0,0,0,0,0,0,0,0,0,0,0,0,0,0,0,0,0,0,0,0,0,0,0,0,0,0,0,51.43753702,-116.3028924,1,1974,Mudry_Anderson_1975,EC_CWS,3
219,McArthur Lake,1,0,0,0,0,0,0,0,0,0,0,0,0,0,0,0,0,0,0,1,0,0,0,0,0,0,0,1,0,0,0,0,0,0,0,0,0,0,0,0,0,0,0,0,0,0,0,0,51.33320089,-116.3399027,1,1974,Mudry_Anderson_1975,EC_CWS,2
220,Sherbrooke Lake,1,0,0,0,0,1,0,0,0,1,0,0,0,0,0,0,0,0,0,0,1,0,0,0,0,0,0,0,0,0,0,0,0,0,0,0,0,0,1,0,1,0,1,0,0,0,0,0,51.45737106,-116.3878422,1,2013,Loewen_Vinebrooke_2016,Vinebrooke,3
221,Hidden Lake,1,0,0,0,0,0,0,0,0,0,0,0,0,1,0,0,0,0,0,0,0,0,0,0,0,0,0,0,0,0,0,0,0,0,0,0,0,0,0,0,0,0,0,0,0,0,0,0,51.48362276,-116.4840965,1,1973,Mudry_Anderson_1975,EC_CWS,1
222,Hamilton Lake,0,0,0,0,1,0,0,0,0,0,0,0,0,0,0,0,0,0,0,0,0,0,0,0,0,1,0,1,0,0,0,0,0,0,0,0,0,0,0,0,0,0,0,0,0,0,0,0,51.45554883,-116.5781958,0,2008,Fischer_et_al_2015,Fischer,3
223,Fairy Lake,0,0,0,0,0,0,0,0,0,0,0,0,0,1,0,0,0,0,0,0,1,0,0,0,0,0,0,1,0,0,0,0,0,0,0,0,0,0,0,0,0,0,0,0,0,0,0,0,51.54798387,-116.4775281,0,1973,Mudry_Anderson_1975,EC_CWS,2
224,Mary Lake,1,0,0,0,0,0,0,0,0,0,0,0,1,1,0,0,0,0,0,0,1,0,0,0,0,1,0,0,0,0,0,0,0,0,0,0,0,0,0,0,1,0,1,0,1,0,0,0,51.35074748,-116.3340789,0,2009,MacLennan_et_al_2015,Vinebrooke,2
225,Amiskwi Lake,0,0,0,0,0,0,0,0,0,0,0,0,0,0,0,0,0,0,0,1,0,0,0,0,0,0,0,1,0,0,0,0,0,0,0,0,0,0,0,0,0,0,0,0,0,0,0,0,51.59232445,-116.6439847,0,2008,Fischer_et_al_2015,Fischer,3
226,Emerald Lake,1,0,0,0,0,0,0,0,0,1,0,0,0,0,0,0,0,0,0,0,0,1,1,0,0,0,0,0,0,0,0,0,0,0,0,0,0,0,1,0,0,0,0,0,1,0,0,0,51.44290265,-116.5322109,1,2013,Loewen_Vinebrooke_2016,Vinebrooke,5
227,Indigo Lake (aka Frigid),0,0,0,0,0,0,0,0,0,0,0,0,0,0,0,0,0,0,0,0,0,0,0,0,0,0,0,1,0,0,0,0,0,0,0,0,0,0,0,0,0,0,0,0,0,0,0,0,51.55118091,-116.7065403,0,1973,Mudry_Anderson_1975,EC_CWS,2
228,Victoria Lake,1,0,0,0,0,0,0,0,0,0,0,0,0,0,0,0,0,0,0,0,0,0,0,0,0,0,0,0,0,0,0,0,0,0,0,0,0,0,0,0,0,0,0,0,0,0,0,0,51.35830299,-116.3141925,0,1973,Mudry_Anderson_1975,EC_CWS,1
229,Yoho Lake,1,0,0,0,0,0,0,0,0,0,0,0,0,0,0,0,0,0,0,0,0,0,0,0,0,0,0,0,0,0,0,0,0,0,0,0,0,0,0,0,0,0,0,0,0,0,0,0,51.47448149,-116.4848764,1,1973,Mudry_Anderson_1975,EC_CWS,1
231,Narao Lake (north),1,0,1,0,0,0,0,0,0,0,0,0,1,1,0,0,0,0,0,0,0,0,0,0,0,1,0,0,0,0,0,0,0,0,0,0,0,0,0,0,0,0,0,1,1,1,0,0,51.42506175,-116.3475983,1,1973,Mudry_Anderson_1975,EC_CWS,1
232,Kiwetinok Lake,0,0,0,0,0,0,0,0,0,0,0,0,0,1,0,0,0,0,0,0,0,0,0,0,0,0,0,1,0,0,0,0,0,0,0,0,0,0,0,0,0,0,0,0,0,0,0,0,51.51926212,-116.600567,0,1973,Mudry_Anderson_1975,EC_CWS,2
233,Linda Lake,1,0,0,0,0,0,0,0,0,0,0,0,0,1,0,0,0,0,0,0,0,0,0,0,0,1,0,0,0,0,0,0,0,0,0,0,0,0,0,0,0,0,0,0,0,0,0,0,51.37037283,-116.3740624,1,1973,Mudry_Anderson_1975,EC_CWS,1
234,Sink Lake,0,0,0,0,0,0,0,0,0,0,0,0,0,1,0,0,0,0,0,0,1,0,0,0,0,1,1,0,0,0,0,0,0,0,0,0,0,0,1,0,1,0,0,1,0,0,1,0,51.45019664,-116.3087871,1,2008,Fischer_Vinebrooke_Unpublished,Fischer,5
235,Little Gem Lake,1,0,0,0,0,0,0,0,0,0,0,0,0,0,0,0,0,0,0,0,1,0,0,0,0,1,0,1,0,0,0,0,0,0,0,0,0,0,1,0,0,0,0,0,0,0,0,0,51.40562104,-116.7285926,0,2007,Fischer_Vinebrooke_Unpublished,Fischer,3
236,Opabin Lake (upper),0,0,0,0,0,0,0,0,0,0,0,0,0,1,0,0,0,0,0,1,1,0,0,0,0,0,0,1,0,0,0,0,0,0,0,0,0,0,0,0,0,0,0,0,0,0,0,0,51.34079116,-116.3119414,0,2013,Fischer_et_al_2015,Fischer,9
237,Oesa Lake,0,0,0,0,0,0,0,0,0,0,0,0,0,1,0,0,0,0,0,1,1,0,0,0,0,0,0,1,0,0,0,0,0,0,0,0,0,0,0,1,0,0,1,0,0,0,0,0,51.35469396,-116.3029872,0,2013,Fischer_et_al_2015,Fischer,10
238,Duchesnay Lake,0,0,0,0,0,0,0,0,0,0,0,0,0,1,0,0,0,0,0,0,1,0,0,0,0,1,0,0,0,0,0,0,0,0,0,0,0,0,1,0,1,0,0,0,1,0,0,0,51.52347808,-116.5015774,1,2008,Fischer_Vinebrooke_Unpublished,Fischer,3
239,Wapta Lake,1,0,0,0,1,0,0,0,0,1,0,0,0,1,0,0,0,0,0,0,0,0,0,0,0,1,0,1,0,0,0,0,0,0,0,0,0,0,1,0,0,0,0,0,0,0,0,0,51.43950678,-116.3499248,1,2013,Loewen_Vinebrooke_2016,Vinebrooke,5
241,Hidden Pond,1,0,0,0,0,1,0,0,0,0,0,0,0,1,0,0,0,0,0,0,0,0,0,0,0,1,0,1,0,0,0,0,0,0,0,0,0,0,0,0,0,0,0,0,0,0,0,0,51.48593937,-116.4853954,0,1973,Mudry_Anderson_1975,EC_CWS,1
242,Narao Lake (south),1,0,0,0,0,0,0,0,0,0,0,0,1,1,0,0,0,0,0,0,0,0,0,0,0,1,0,0,0,0,0,0,0,0,0,0,0,0,0,0,1,0,0,1,1,1,0,0,51.42169958,-116.3477469,1,1973,Mudry_Anderson_1975,EC_CWS,1
243,Opabin Pond (lower),0,0,0,0,0,0,0,0,0,0,0,0,0,0,0,0,0,0,0,0,0,0,0,0,0,0,0,1,0,0,0,0,0,0,0,0,0,0,0,0,0,0,0,0,0,0,0,0,51.348382,-116.326036,0,1973,Mudry_Anderson_1975,EC_CWS,1
244,Sleeping Poets Pool,0,0,0,0,0,0,0,0,0,0,0,0,0,1,0,0,0,0,0,1,0,0,0,0,0,0,0,0,0,0,0,0,0,0,0,0,0,0,0,0,0,0,0,0,0,0,0,0,51.34990402,-116.318755,0,2007,Fischer_Vinebrooke_Unpublished,Fischer,1
246,Gillespie,0,0,0,0,0,0,0,0,0,0,0,0,0,0,1,0,0,0,0,0,0,0,0,0,0,0,0,0,0,0,0,0,0,0,0,0,0,0,0,0,0,0,0,0,0,0,0,0,64.73072,-133.98907,0,1974,Lindsey_et_al_1981,Patalas,1
247,Margaret,0,0,0,0,0,0,0,1,0,0,0,0,0,0,1,0,0,0,1,0,0,0,0,0,0,0,0,0,0,0,0,1,1,1,0,0,1,0,0,0,0,0,0,0,0,0,0,0,65.34793,-134.49777,0,1975,Lindsey_et_al_1981,Patalas,1
248,Pinguicula,0,0,0,0,0,0,0,0,0,0,0,0,0,0,1,0,0,0,0,1,0,0,0,0,0,0,0,0,0,0,0,1,0,1,0,0,0,0,0,0,0,0,0,0,0,0,0,0,64.68906,-133.411,0,1974,Lindsey_et_al_1981,Patalas,1
249,Bonnet Plume,0,0,0,0,0,0,0,0,0,1,0,0,0,0,1,0,0,0,0,1,0,0,0,0,0,0,0,0,0,0,0,0,0,1,0,0,0,0,0,0,0,0,0,0,0,0,0,0,64.31696,-131.97189,0,1974,Lindsey_et_al_1981,Patalas,1
250,YUK18,0,0,0,0,0,0,0,0,0,0,0,0,0,0,0,0,0,0,0,1,0,0,0,0,0,0,0,0,0,0,0,1,0,1,0,0,0,0,0,0,0,0,0,0,0,0,0,0,64.57975,-138.29425,0,1990,Swadling_et_al_2000,Swadling,1
251,YUK20 (Two Moose),0,0,0,0,0,0,0,0,0,0,0,0,0,0,0,0,0,0,0,0,0,0,0,0,0,0,0,0,0,0,0,1,0,1,0,0,0,0,0,0,0,0,0,0,0,0,0,0,64.73479,-138.3657,0,1990,Swadling_et_al_2000,Swadling,1
252,YUK19 (North Fork),0,0,0,0,0,0,0,0,0,0,0,0,0,0,1,0,0,0,0,1,0,0,0,0,0,0,0,0,0,0,0,1,0,1,0,0,0,0,0,0,0,0,0,0,0,0,0,0,64.65024,-138.39243,0,1990,Swadling_et_al_2000,Swadling,2
253,Hungry,0,0,0,0,0,0,0,0,0,0,0,0,0,0,1,0,0,0,0,1,0,0,0,0,0,0,0,0,0,0,0,1,0,1,0,0,0,0,0,0,0,0,0,0,0,0,0,0,65.65382,-136.04669,0,1975,Lindsey_et_al_1981,Patalas,1
254,YUK21 (Chapman),0,0,0,0,0,0,0,0,0,0,0,0,0,0,1,0,0,0,1,1,0,0,0,0,0,0,0,0,0,0,0,1,1,1,0,0,0,0,0,0,0,0,0,0,0,0,0,0,64.85,-138.35,0,1990,Swadling_et_al_2000,Swadling,2
255,Elliot,0,0,0,0,0,0,0,0,0,0,0,0,0,0,1,0,0,0,0,0,0,0,0,0,0,0,0,0,0,0,0,1,0,0,0,0,0,0,0,0,0,0,0,0,0,0,0,0,64.48653,-135.5733,0,1970,Lindsey_et_al_1981,Patalas,1
256,Frances,0,0,0,0,0,0,0,1,0,0,0,0,0,0,1,0,0,0,1,1,0,0,0,0,0,0,0,0,0,0,0,1,0,1,0,0,0,0,0,0,0,0,0,0,0,0,0,0,61.44979,-129.39696,0,1970,Lindsey_et_al_1981,Patalas,1
257,Finlayson,0,0,0,0,0,0,0,1,0,0,0,0,0,0,1,0,0,0,0,1,0,0,0,0,0,0,0,0,0,0,0,1,0,1,0,0,0,0,0,0,0,0,0,0,0,0,0,0,61.69593,-130.66287,0,1970,Lindsey_et_al_1981,Patalas,1
258,Watson,0,0,0,0,0,0,0,1,0,0,0,0,0,0,1,0,0,1,1,1,1,0,0,0,0,0,0,0,0,0,0,1,0,1,0,0,0,0,1,0,0,0,0,0,0,0,0,0,60.10718,-128.81064,0,1970,Lindsey_et_al_1981,Patalas,2
259,Davis N,0,0,0,0,0,0,0,0,0,1,0,0,0,0,1,0,1,0,1,0,0,0,0,0,0,0,0,0,0,0,0,0,0,1,0,0,0,0,0,1,0,0,0,0,0,0,0,0,66.17637,-136.41546,0,1975,Lindsey_et_al_1981,Patalas,1
260,Davis S,0,0,0,0,0,0,0,0,0,1,0,0,0,0,1,0,1,0,1,0,0,0,0,0,0,0,0,0,0,0,0,0,0,1,0,0,0,0,0,1,0,0,0,0,0,0,0,0,66.14741,-136.3978,0,1975,Lindsey_et_al_1981,Patalas,1
261,YUK59,0,0,0,0,0,0,0,0,0,0,0,0,0,0,0,0,0,0,0,1,0,0,0,0,0,0,0,0,0,0,0,0,0,1,0,0,0,0,0,0,0,0,0,0,0,0,0,0,64.48753,-138.28359,0,1990,Swadling_et_al_2000,Swadling,1
262,YUK17 (Lenore),0,0,0,0,0,0,0,0,0,0,0,0,0,0,0,0,0,0,0,1,0,0,0,0,0,0,0,0,0,0,0,1,0,1,0,0,0,0,0,0,0,0,0,0,0,0,0,0,63.85285,-138.02763,0,1990,Swadling_et_al_2000,Swadling,1
263,YUK14,0,0,0,0,0,0,0,0,0,0,0,0,0,0,0,0,0,0,0,0,0,0,0,0,0,0,0,0,0,0,0,0,0,1,0,0,0,0,0,0,0,0,0,1,0,0,0,0,63.98657,-135.36648,0,1990,Swadling_et_al_2000,Swadling,1
264,YUK11,0,0,0,0,0,0,0,0,0,0,0,0,0,0,0,0,0,1,0,1,0,0,0,0,0,0,0,0,0,1,0,0,0,0,0,0,0,0,0,0,0,0,0,1,0,0,0,0,63.1544,-136.50345,0,1990,Swadling_et_al_2000,Swadling,1
265,YUK13,0,0,0,0,0,0,0,0,0,0,0,0,0,0,0,0,0,0,0,1,0,0,0,0,0,0,0,0,0,0,0,1,0,1,0,0,0,0,0,0,0,0,0,0,0,0,0,0,63.97926,-135.40009,1,1990,Swadling_et_al_2000,Swadling,1
266,McQuesten,0,0,0,0,0,0,0,0,0,0,0,0,0,0,1,0,0,0,1,1,0,0,0,0,0,0,0,0,0,0,0,1,0,1,0,0,0,0,0,0,0,0,0,0,0,0,0,0,64.12214,-135.31949,0,1970,Lindsey_et_al_1981,Patalas,1
267,Hanson N,0,0,0,0,0,0,0,0,0,0,0,0,0,0,1,0,0,0,0,1,0,0,0,0,0,0,0,0,0,0,0,1,0,1,0,0,0,0,0,0,0,0,0,0,0,0,0,0,64.02632,-135.35719,0,1975,Lindsey_et_al_1981,Patalas,1
268,Hanson S,0,0,0,0,0,0,0,1,0,0,0,0,0,0,1,0,0,0,1,1,0,0,0,0,0,0,0,0,0,0,0,1,0,1,0,0,0,0,0,0,0,0,0,0,0,0,0,0,63.99383,-135.36839,0,1970,Lindsey_et_al_1981,Patalas,1
269,YUK16 (Barlow),0,0,0,0,0,0,0,1,0,0,0,0,0,0,1,0,0,0,1,1,1,0,0,0,0,0,0,0,0,0,0,1,0,1,0,0,0,0,0,0,0,0,0,0,0,0,0,0,63.75,-137.71667,0,1990,Swadling_et_al_2000,Swadling,2
270,Reid,0,0,0,0,0,0,0,0,0,0,0,0,0,0,1,0,0,1,1,0,0,0,0,0,0,0,0,0,0,0,0,0,0,1,0,0,0,0,0,0,0,0,0,0,0,0,0,0,63.41845,-137.19492,0,1970,Lindsey_et_al_1981,Patalas,1
271,Janet,0,0,0,0,0,0,0,0,0,0,0,0,0,0,1,0,1,0,1,0,0,0,0,0,0,0,0,0,0,0,0,0,0,1,0,0,1,0,0,0,0,0,0,1,1,0,0,0,63.68093,-135.52481,0,1975,Lindsey_et_al_1981,Patalas,1
272,Halfway,0,0,0,0,0,0,0,0,0,0,0,0,0,0,1,0,0,0,0,0,0,1,0,0,0,0,0,0,0,0,0,0,0,1,0,0,0,0,0,0,0,0,0,1,0,0,0,0,63.80285,-135.82009,0,1975,Lindsey_et_al_1981,Patalas,1
273,Minto,0,0,0,0,0,0,0,1,0,0,0,0,0,0,1,0,0,1,0,0,0,0,0,0,0,0,0,0,0,0,0,0,0,0,0,0,1,0,0,1,0,0,0,0,0,0,0,0,63.68371,-136.17377,0,1975,Lindsey_et_al_1981,Patalas,2
274,YUK15,0,0,0,0,0,0,0,0,0,0,0,0,0,0,0,0,0,0,0,0,0,0,0,0,0,0,0,0,0,0,0,1,0,1,0,0,0,0,0,0,0,0,0,0,0,0,0,0,63.65424,-135.86301,0,1990,Swadling_et_al_2000,Swadling,1
275,Mayo,0,0,0,0,0,0,0,1,0,0,0,0,0,0,1,0,0,0,0,0,0,0,0,0,0,0,0,0,0,0,0,1,0,1,0,0,0,0,0,0,0,0,0,0,0,0,0,0,63.75798,-135.03826,0,1970,Lindsey_et_al_1981,Patalas,1
276,YUK12 (Five Mile),0,0,0,0,0,0,0,0,0,0,0,0,0,1,0,0,0,0,0,1,0,0,0,0,0,0,0,0,0,0,0,0,0,1,0,0,0,0,0,0,0,0,0,0,0,0,0,0,63.65275,-135.89584,0,1990,Swadling_et_al_2000,Swadling,1
277,Ethel,0,0,0,0,0,0,0,0,0,0,0,0,0,0,1,0,0,0,0,1,0,0,0,0,0,0,0,0,0,0,0,1,0,1,0,0,0,0,0,0,0,0,0,0,0,0,0,0,63.36637,-136.07672,0,1970,Lindsey_et_al_1981,Patalas,1
278,Ladue,0,0,0,0,0,0,0,0,0,0,0,0,0,0,1,0,0,0,0,1,0,0,0,0,0,0,0,0,0,0,0,1,0,1,0,0,0,0,0,0,0,0,0,0,0,0,0,0,64.00927,-135.24888,0,1975,Lindsey_et_al_1981,Patalas,1
279,Kathleen Lakes (Main),0,0,0,0,0,0,0,0,0,0,0,0,0,0,1,0,0,1,0,1,0,0,0,0,0,0,0,0,0,0,0,1,0,1,0,0,1,0,0,0,0,0,0,0,0,0,0,0,64.23781,-134.20462,0,1975,Lindsey_et_al_1981,Patalas,1
280,Clark,0,0,0,0,0,0,0,1,0,0,0,0,0,1,1,0,0,1,1,1,0,0,0,0,0,0,0,0,0,0,0,0,0,1,0,0,0,0,0,0,0,0,0,1,0,0,0,0,64.13887,-134.91067,0,1975,Lindsey_et_al_1981,Patalas,1
281,Kluane,0,0,0,0,0,0,0,0,0,0,0,0,0,0,1,0,0,0,0,0,0,0,0,0,0,0,0,0,0,0,0,0,0,0,0,0,1,0,0,0,0,0,0,0,0,0,0,0,61.27611,-138.75116,0,1975,Lindsey_et_al_1981,Patalas,4
282,Jackfish,0,0,0,0,0,0,0,1,0,0,0,0,0,0,1,0,0,0,0,1,0,0,0,0,0,0,0,0,0,0,0,1,0,1,0,0,0,0,0,0,1,0,0,0,0,0,0,0,61.93636,-132.5238,0,1975,Lindsey_et_al_1981,Patalas,1
283,YUK60,0,0,0,0,0,0,0,0,0,0,0,0,0,0,0,0,0,0,0,0,0,0,0,0,0,0,0,0,0,0,0,1,0,0,0,0,0,0,0,0,0,0,0,0,0,0,0,0,62.74665,-136.57667,0,1990,Swadling_et_al_2000,Swadling,1
284,YUK10,0,0,0,0,0,0,0,0,0,0,0,0,0,0,0,1,0,0,0,0,0,0,0,0,0,0,0,0,0,0,0,0,0,0,0,0,0,0,1,0,0,0,0,0,0,0,0,0,63.02118,-136.47563,0,1990,Swadling_et_al_2000,Swadling,1
285,Diamain,0,0,0,0,0,0,0,0,0,0,0,0,0,0,1,0,0,0,0,1,0,0,0,0,0,0,0,0,0,0,0,1,0,1,0,0,1,0,0,0,0,0,0,0,0,0,0,0,62.91792,-136.30339,0,1975,Lindsey_et_al_1981,Patalas,2
286,Willow,0,0,0,0,0,0,0,0,0,0,0,0,0,0,0,0,0,0,0,0,1,0,0,0,0,0,0,0,0,0,0,0,0,0,0,0,0,0,0,0,1,0,0,0,0,0,0,0,63.18705,-136.77921,0,1970,Lindsey_et_al_1981,Patalas,1
287,Tatlmain,0,0,1,0,0,0,0,0,0,0,0,0,0,0,1,0,0,1,0,1,0,0,0,0,0,0,0,0,0,0,0,1,0,1,0,0,1,0,0,0,0,0,0,0,0,0,0,0,62.61888,-135.90643,0,1975,Lindsey_et_al_1981,Patalas,1
288,Dragon,0,0,0,0,0,0,0,0,0,0,0,0,0,0,1,0,0,0,1,1,0,0,0,0,0,0,0,0,0,0,0,1,0,1,0,0,0,0,0,0,0,0,0,0,0,0,0,0,62.61719,-131.54449,0,1972,Lindsey_et_al_1981,Patalas,1
289,Bruce,0,0,0,0,0,0,0,1,0,0,0,0,0,0,1,0,0,1,0,0,0,0,0,0,0,0,0,0,0,0,0,1,0,1,0,0,0,0,0,0,0,0,0,0,0,0,0,0,61.81343,-132.10721,0,1975,Lindsey_et_al_1981,Patalas,1
290,YUK8,0,0,0,0,0,0,0,0,0,0,0,1,0,0,0,1,0,0,0,0,0,0,0,0,0,0,0,0,0,0,0,0,0,0,0,0,0,0,0,0,0,0,0,1,0,0,0,0,62.17586,-136.24604,0,1990,Swadling_et_al_2000,Swadling,1
291,Little Salmon,0,0,0,0,0,0,0,0,0,1,0,0,0,1,1,0,0,1,1,0,0,0,0,0,0,0,0,0,0,0,0,0,0,1,0,0,0,0,0,0,0,0,0,0,0,0,0,0,62.18728,-134.70886,0,1975,Lindsey_et_al_1981,Patalas,1
292,Moraine,0,0,0,0,0,0,0,0,0,0,0,0,0,0,1,0,0,0,0,1,0,0,0,0,0,0,0,0,0,0,0,1,0,1,0,0,0,0,0,0,0,0,0,0,0,0,0,0,60.9454,-136.76065,0,1975,Lindsey_et_al_1981,Patalas,1
293,Frenchman,0,0,0,0,0,0,0,0,0,0,0,0,0,0,1,0,0,1,1,1,0,0,0,0,0,1,0,0,0,0,0,1,0,1,0,0,0,0,0,0,0,0,0,0,0,0,0,0,62.18412,-135.88244,0,1975,Lindsey_et_al_1981,Patalas,1
294,YUK6 (Little Fox),0,0,0,0,0,0,0,0,0,0,0,0,0,0,0,0,0,0,0,1,0,0,0,0,0,0,0,0,0,0,0,1,0,0,0,0,0,0,1,0,0,0,0,1,0,0,0,0,61.34083,-135.65298,0,1990,Swadling_et_al_2000,Swadling,1
295,Von Wilczek,0,0,0,0,0,0,0,0,0,0,0,0,0,0,0,0,0,0,0,0,0,1,0,0,0,0,0,0,0,0,0,0,0,0,0,0,0,0,0,0,0,0,0,0,0,0,0,0,62.68727,-136.72887,0,1970,Lindsey_et_al_1981,Patalas,1
296,YUK9 (Tthe Ndu),0,0,0,0,0,0,0,0,0,0,0,0,0,0,0,0,0,0,0,0,1,0,0,0,0,0,0,0,0,0,0,0,0,0,0,0,0,0,0,0,0,0,0,0,0,0,0,0,62.71667,-136.68333,0,1990,Swadling_et_al_2000,Swadling,1
297,YUK7 (Twin),0,0,0,0,0,0,0,0,0,0,0,0,0,1,0,0,0,0,0,0,0,0,0,0,0,0,0,0,0,0,0,0,0,0,0,0,0,0,0,0,0,0,0,1,0,0,0,0,61.7,-135.93333,1,1990,Swadling_et_al_2000,Swadling,1
298,Tatchum,0,0,0,0,0,0,0,1,0,1,0,0,0,0,1,0,1,0,1,0,0,0,0,0,0,0,0,0,0,0,0,0,0,1,0,0,0,0,0,1,0,0,0,0,0,0,0,0,62.28866,-136.11989,0,1975,Lindsey_et_al_1981,Patalas,2
299,Braeburn,0,0,0,0,0,0,0,1,0,1,0,0,0,0,1,0,0,1,1,1,0,0,0,0,0,0,0,0,0,0,0,0,0,1,0,0,0,0,0,0,0,0,0,0,0,0,0,0,61.45259,-135.80942,0,1970,Lindsey_et_al_1981,Patalas,1
300,Quiet,0,0,0,0,0,0,0,0,0,0,0,0,0,0,1,0,1,0,1,0,0,0,0,0,0,0,0,0,0,0,0,0,0,0,0,0,1,0,0,0,0,0,0,0,0,0,0,0,61.05511,-133.06165,0,1970,Lindsey_et_al_1981,Patalas,1
301,Squanga,0,0,0,0,0,0,0,1,0,0,0,0,0,0,1,0,0,1,1,0,0,0,1,0,0,0,0,0,0,0,0,0,0,1,0,0,0,0,0,1,0,0,0,0,0,0,0,0,60.47417,-133.6353,0,1970,Lindsey_et_al_1981,Patalas,1
302,Summit,0,0,0,0,0,0,0,0,0,0,0,0,0,0,1,0,0,0,0,1,0,0,0,0,0,0,0,0,0,0,0,1,0,1,0,0,0,0,0,0,0,0,0,0,0,0,0,0,60.43922,-133.65397,0,1975,Lindsey_et_al_1981,Patalas,1
303,Dalayee,0,0,0,0,0,0,0,0,0,0,0,0,0,0,1,0,0,0,0,0,0,0,0,0,0,0,0,0,0,0,0,1,0,1,0,0,0,0,0,0,0,0,0,0,0,0,0,0,60.34094,-133.64066,0,1970,Lindsey_et_al_1981,Patalas,1
304,Dwarf,0,0,0,0,0,0,0,0,0,0,0,0,0,0,1,0,0,0,1,0,0,0,0,0,0,0,0,0,0,0,0,1,0,1,0,0,0,0,0,0,0,0,0,0,0,0,0,0,60.24309,-133.37053,0,1975,Lindsey_et_al_1981,Patalas,1
305,Teenah,0,0,0,0,0,0,0,1,0,0,0,0,0,0,1,1,1,0,1,0,0,0,0,0,0,0,0,0,0,0,0,1,0,1,0,0,0,0,0,0,0,0,0,0,0,0,0,0,60.29897,-133.41893,0,1970,Lindsey_et_al_1981,Patalas,2
306,Little Teslin,0,0,0,0,0,0,0,1,0,0,0,0,0,0,1,0,0,1,1,0,0,0,1,0,0,0,0,0,0,0,0,1,0,1,0,0,0,0,0,1,0,0,0,0,0,0,0,0,60.48361,-133.39866,0,1975,Lindsey_et_al_1981,Patalas,2
307,Swan2,0,0,0,0,0,0,0,1,0,0,0,0,0,1,1,0,0,0,1,0,0,0,0,0,0,0,0,0,0,0,0,0,0,1,0,0,0,0,0,0,0,0,0,0,0,0,0,0,59.88333,-131.4,0,1975,Lindsey_et_al_1981,Patalas,1
308,Fish_stn6,0,0,0,0,0,0,0,1,0,0,0,0,0,0,0,0,0,0,0,0,0,0,0,0,0,0,0,0,0,0,0,1,0,0,0,0,0,0,1,0,0,0,0,0,0,0,0,0,60.62375,-132.06121,0,1945,Hooper_1947,Hooper,1
309,Wolf,0,0,0,0,0,0,0,0,0,0,0,0,0,0,1,0,0,0,0,1,0,0,0,0,0,0,0,0,0,0,0,1,0,1,0,0,0,0,0,0,0,0,0,0,0,0,0,0,60.64166,-131.6668,0,1975,Lindsey_et_al_1981,Patalas,1
310,Jo-Jo,0,0,0,0,0,0,0,1,0,0,0,0,0,0,1,0,1,0,1,0,0,0,0,0,0,0,0,0,0,0,0,0,0,0,0,0,1,0,0,0,0,0,0,0,0,0,0,0,60.57649,-136.33419,0,1975,Lindsey_et_al_1981,Patalas,1
311,Taye,0,0,0,0,0,0,0,0,0,0,0,0,0,1,1,0,0,0,0,1,0,0,0,0,0,1,0,0,0,0,0,1,0,1,0,0,0,0,0,0,0,0,0,0,0,0,0,0,60.93087,-136.35713,0,1975,Lindsey_et_al_1981,Patalas,1
312,Kusawa,0,0,0,0,0,0,0,0,0,0,0,0,0,0,1,0,1,0,1,0,0,0,0,0,0,0,0,0,0,0,0,0,0,1,0,0,0,0,0,0,0,0,0,0,0,0,0,0,60.33786,-136.37686,0,1970,Lindsey_et_al_1981,Patalas,1
313,YUK2 (Chadden),0,0,0,0,0,0,0,0,0,1,0,0,0,0,0,0,0,0,0,0,0,0,0,0,0,0,0,0,0,0,0,0,0,0,0,0,0,0,0,0,0,0,0,1,0,0,0,1,60.67424,-134.9811,1,1990,Swadling_et_al_2000,Swadling,1
314,YUK3,0,0,0,0,0,0,0,0,0,1,0,0,0,1,0,0,0,0,0,0,0,0,0,0,0,0,0,0,0,0,0,0,0,0,0,0,0,0,0,0,0,0,0,1,0,0,0,1,60.74164,-135.04414,1,1990,Swadling_et_al_2000,Swadling,1
316,YUK1 (Chadburn),0,0,0,0,0,0,0,1,0,1,0,0,0,1,1,1,0,0,0,0,0,0,0,0,0,0,0,0,0,0,0,0,1,1,0,0,0,0,0,0,0,0,0,1,0,0,0,1,60.64711,-134.95289,0,1990,Swadling_et_al_2000,Swadling,2
317,Fox,0,0,0,0,0,0,0,1,0,0,0,0,0,0,1,0,1,0,1,0,0,0,0,0,0,0,0,0,0,0,0,0,0,0,0,0,1,0,0,0,0,0,0,0,0,0,0,0,61.23267,-135.45945,0,1975,Lindsey_et_al_1981,Patalas,1
318,Marsh,0,0,0,0,0,0,0,1,0,0,0,0,0,1,1,0,0,0,0,0,0,0,0,0,0,0,0,0,0,0,0,0,1,1,0,0,0,0,0,0,0,0,0,0,0,0,0,0,60.49775,-134.33615,0,1970,Lindsey_et_al_1981,Patalas,1
319,YUK5 (Louise),0,0,0,0,0,0,0,0,0,0,0,0,0,0,0,0,0,0,0,1,0,0,0,0,0,0,0,0,0,0,0,1,0,0,0,0,0,0,1,0,0,0,0,1,0,0,0,0,60.7,-135.28333,0,1990,Swadling_et_al_2000,Swadling,1
320,McClintock,0,0,0,0,0,0,0,1,0,0,0,0,1,1,1,0,0,0,1,0,0,0,0,0,0,0,0,0,0,0,0,0,0,1,0,0,0,0,0,0,0,0,0,0,0,0,0,0,60.58885,-133.92209,0,1970,Lindsey_et_al_1981,Patalas,1
321,YUK4 (Fish_stn5),0,0,0,0,0,0,0,0,0,0,0,0,0,0,1,0,0,0,0,1,0,0,0,0,0,0,0,0,0,0,0,1,0,1,0,0,1,0,1,0,0,0,0,0,0,0,0,1,60.61667,-135.23333,0,1990,Swadling_et_al_2000,Swadling,3
322,Nares,0,0,0,0,0,0,0,0,0,0,0,0,0,0,1,0,0,0,1,0,0,0,0,0,0,0,0,0,0,0,0,0,0,1,0,0,0,0,0,0,0,0,0,0,0,0,0,0,60.16257,-134.65894,0,1970,Lindsey_et_al_1981,Patalas,2
323,Neskataheen,0,0,0,0,0,0,0,1,0,0,0,0,0,0,1,0,0,0,0,0,1,0,0,0,0,0,0,0,0,0,0,0,0,0,0,0,0,0,0,0,0,0,0,0,0,0,1,0,60.17638,-137.07705,0,1977,Rankin_et_al_1983,DFO_Pacific_Station,1
324,Onion,0,0,0,0,0,0,0,1,0,0,0,0,0,0,1,0,1,0,0,0,0,0,0,0,0,0,0,0,0,0,0,0,0,1,0,0,0,0,0,0,0,0,0,0,0,0,0,0,60.09417,-137.42569,0,NA,Patalas_et_al_1994,Patalas,1
325,Klukshu,0,0,0,0,0,0,0,0,0,0,0,0,0,0,1,0,0,0,0,0,1,0,0,0,0,0,0,0,0,0,0,0,0,1,0,0,0,0,0,0,1,0,0,0,0,0,0,0,60.31461,-137.01593,0,1977,Rankin_et_al_1983,DFO_Pacific_Station,1
327,Mush,0,0,0,0,0,0,0,0,0,0,0,0,0,0,1,0,1,0,0,0,0,0,0,0,0,0,0,0,0,0,0,0,0,1,0,0,0,0,0,0,0,0,0,0,0,0,0,0,60.30258,-137.44918,0,NA,Patalas_et_al_1994,Patalas,1
328,Bates,0,0,0,0,0,0,0,0,0,0,0,0,0,0,1,0,1,0,0,0,0,0,0,0,0,0,0,0,0,0,0,0,0,1,0,0,0,0,0,0,0,0,0,0,0,0,0,0,60.25472,-137.59161,0,NA,Patalas_et_al_1994,Patalas,1
329,Kloo,0,0,0,0,0,0,0,1,0,0,0,0,0,0,1,0,0,0,1,0,0,0,0,0,0,0,0,0,0,0,0,1,0,1,0,0,1,0,0,0,0,0,0,0,0,0,0,0,60.95755,-137.85658,0,1975,Lindsey_et_al_1981,Patalas,1
331,Dezadeash,0,0,0,0,0,0,0,1,0,0,0,0,0,1,1,0,1,0,1,0,0,0,0,0,0,0,1,0,0,0,0,1,1,1,0,0,0,0,0,0,0,0,0,0,0,0,0,0,60.46022,-137.00303,0,1975,Lindsey_et_al_1981,Patalas,2
333,Pine,0,0,0,0,0,0,0,1,0,0,0,0,0,0,1,0,1,0,1,1,0,0,0,0,0,0,0,0,0,0,0,0,0,1,0,0,1,0,0,0,0,0,0,1,0,0,0,0,60.81842,-137.44333,0,1975,Lindsey_et_al_1981,Patalas,1
334,Aishihik,0,0,0,0,0,0,0,1,0,0,0,0,0,0,1,0,0,1,0,0,0,0,0,0,0,0,0,0,0,0,0,0,0,1,0,0,0,0,0,0,0,0,0,0,0,0,0,0,61.46813,-137.22473,0,1970,Lindsey_et_al_1981,Patalas,1
335,Sockeye,0,0,0,0,0,0,0,0,0,0,0,0,0,0,1,0,0,0,0,0,0,0,0,0,0,0,0,0,0,0,0,0,0,1,0,0,0,0,0,0,0,0,0,0,0,0,0,0,60.50389,-137.62804,0,NA,Patalas_et_al_1994,Patalas,1
336,Kathleen Lake (Upper),0,0,0,0,0,0,0,0,0,0,0,0,0,0,1,0,0,0,0,1,0,0,0,0,0,0,0,0,0,0,0,0,0,1,0,0,0,0,0,0,0,0,0,0,0,0,0,0,60.53317,-137.48112,0,1975,Lindsey_et_al_1981,Patalas,1
337,Kathleen Lake (Lower),0,0,0,0,0,0,0,0,0,0,0,0,0,0,1,0,0,0,0,1,1,0,0,0,0,0,0,0,0,0,0,0,0,1,0,0,0,0,0,0,0,0,0,0,0,0,0,0,60.57295,-137.29269,0,1975,Lindsey_et_al_1981,Patalas,1
338,Frederick,0,0,0,0,0,0,0,0,0,0,0,0,0,0,1,0,1,0,0,0,0,0,0,0,0,0,0,0,0,0,0,0,0,1,0,0,0,0,0,0,0,0,0,0,0,0,0,0,60.39097,-136.66607,0,1974,Lindsey_et_al_1981,Patalas,1
339,Indian Springs Lake (W46),1,0,0,0,1,0,1,0,0,0,0,0,1,1,0,0,0,0,0,0,1,1,1,0,0,1,0,1,0,0,0,0,0,0,0,1,0,0,1,0,1,0,0,0,0,0,1,0,49.12749499,-113.873222,0,1975,Anderson_Donald_1976b,EC_CWS,3
340,Buffalo Creek Pond,1,1,1,0,0,0,1,0,0,1,1,1,1,1,0,0,1,0,0,0,1,1,1,0,0,1,0,0,0,0,0,0,0,0,0,1,0,0,0,0,1,0,0,0,0,0,1,0,49.12788797,-113.854915,1,1975,Anderson_Donald_1976b,EC_CWS,5
342,Rowe Lake (middle),1,0,0,0,0,0,0,0,0,0,0,0,0,1,0,0,0,0,0,1,0,0,0,0,0,1,0,0,0,0,1,0,1,0,0,0,0,0,0,0,0,0,0,0,0,0,0,0,49.05244951,-114.055998,0,1975,Anderson_Donald_1976b,EC_CWS,2
343,Carthew Pond,0,0,0,1,1,0,0,0,0,1,0,0,0,1,0,0,1,0,0,0,1,1,0,0,0,0,0,0,0,0,0,0,0,0,0,0,0,0,0,0,0,0,0,0,0,0,0,0,49.02849656,-113.9883549,0,1972,Anderson_Donald_1976b,EC_CWS,2
344,Waterton Lake (upper),1,0,1,0,1,0,0,0,0,1,0,0,1,1,0,0,1,0,0,0,0,0,1,0,0,0,0,0,0,0,0,0,0,0,0,0,1,0,0,0,0,0,0,1,0,0,0,0,49.0230211,-113.9025625,1,1975,Anderson_et_al_1976,EC_CWS,7
345,Knight's Lake,1,0,0,0,0,0,0,0,0,1,0,0,0,1,0,0,1,0,0,0,0,0,1,0,0,1,1,0,0,0,0,0,0,0,0,0,1,0,0,0,1,0,0,0,0,0,0,0,49.08995206,-113.8536415,1,1975,Anderson_et_al_1976,EC_CWS,7
346,Lineham Lake (south),1,0,0,0,0,0,0,0,0,0,0,0,0,0,0,0,0,0,0,0,0,0,0,0,0,0,0,0,0,0,0,0,0,0,0,0,0,0,0,0,0,0,0,0,0,0,0,0,49.07199813,-114.0738772,1,1971,Anderson_Donald_1976a,EC_CWS,1
347,Maskinonge Lake,1,1,0,0,1,0,0,0,0,1,0,0,1,1,0,0,1,0,0,1,0,1,1,1,0,1,1,0,0,0,0,0,0,0,0,1,0,0,0,0,1,0,0,1,1,1,1,0,49.10776477,-113.8362456,0,1973,Anderson_Donald_1976b,EC_CWS,3
348,Lineham Lake (north),1,0,0,0,0,0,0,0,0,0,0,0,0,0,0,0,0,0,0,0,0,0,0,0,0,0,0,1,0,0,0,0,0,0,0,0,0,0,0,0,0,0,0,0,0,0,0,0,49.07736566,-114.0740821,1,1971,Anderson_Donald_1976a,EC_CWS,1
349,Pond (near park entrance buildings),0,1,1,0,0,0,0,0,0,0,0,0,1,1,0,0,1,0,0,0,0,1,0,1,0,1,1,0,0,0,0,0,0,0,0,1,0,0,0,0,1,0,0,1,0,0,1,0,49.1136216,-113.8442686,0,1972,Anderson_Donald_1976b,EC_CWS,1
350,Buffalo Paddock Pond (W45D),1,0,0,0,1,1,1,0,0,0,0,0,1,1,0,0,0,0,0,0,1,0,0,0,0,0,0,1,0,0,0,0,0,0,0,1,0,0,0,0,1,0,0,0,0,0,1,0,49.12228946,-113.8589936,0,1975,Anderson_Donald_1976b,EC_CWS,1
351,Twin Lake (upper),0,0,0,0,0,0,0,0,0,1,0,0,0,0,0,0,1,1,0,0,0,0,1,0,0,0,0,0,0,0,0,0,1,0,0,0,0,0,0,0,0,0,0,0,0,0,0,0,49.13415892,-114.157435,1,1975,Anderson_Donald_1976a,EC_CWS,3
352,Buffalo Paddock Lake,1,0,0,0,0,1,1,0,0,1,0,1,0,1,0,0,0,0,0,0,1,0,0,0,0,1,0,0,0,0,0,0,0,0,0,1,0,0,0,0,1,0,0,0,0,0,0,0,49.12736025,-113.8609442,1,1975,Anderson_Donald_1976a,EC_CWS,1
353,Twin Lake (lower),0,0,0,0,1,0,0,0,0,1,0,0,1,0,0,0,1,1,0,0,0,0,1,0,0,1,0,0,0,0,0,0,1,0,0,0,0,0,0,0,0,0,0,0,0,0,0,0,49.13224047,-114.1518959,1,1975,Anderson_Donald_1976a,EC_CWS,3
354,Beaver Pond D (W64),0,0,1,0,0,1,0,0,0,1,0,0,1,1,0,0,1,0,0,0,0,0,1,0,0,1,1,0,0,0,0,0,0,0,0,0,0,0,0,0,1,0,0,1,0,0,1,0,49.12458476,-113.8527923,1,1975,Anderson_Donald_1976b,EC_CWS,1
355,Beaver Pond B (W31),1,1,0,0,0,0,0,0,0,0,0,0,1,1,0,0,1,0,0,0,1,0,1,0,0,1,0,0,0,0,0,0,0,0,0,0,0,0,0,0,1,0,0,0,0,0,1,0,49.06055268,-113.7460027,1,1971,Anderson_Donald_1976b,EC_CWS,1
356,Carthew Lake (lower),1,0,0,0,1,1,0,0,0,1,0,0,0,1,0,0,1,1,0,0,0,1,0,0,0,1,0,0,0,0,0,0,0,0,0,0,0,0,0,0,0,0,0,0,0,0,0,0,49.0279015,-113.9908231,1,1971,Anderson_Donald_1976a,EC_CWS,2
357,Buffalo Paddock Pond (W45B),1,0,0,0,0,0,0,0,0,0,0,0,1,1,0,0,0,0,0,0,1,0,0,0,0,0,0,0,0,0,0,0,0,0,0,1,0,0,0,0,0,0,0,0,0,0,1,0,49.12614722,-113.8623275,0,1975,Anderson_Donald_1976b,EC_CWS,1
358,Allison Lake,1,0,0,0,1,1,1,0,0,0,0,1,1,1,0,0,0,0,0,0,1,1,1,0,0,1,1,1,0,0,0,0,0,0,0,1,0,0,1,0,0,1,0,0,0,0,1,0,49.12269046,-113.8142871,0,1975,Anderson_Donald_1976b,EC_CWS,3
359,Lost Lake,1,0,0,0,0,0,0,0,0,0,0,1,1,0,0,0,1,0,0,1,0,0,1,0,0,0,0,0,0,0,0,0,0,0,0,0,0,0,0,0,0,0,0,0,0,0,0,0,49.14716372,-114.1452523,0,1975,Anderson_Donald_1976a,EC_CWS,6
360,Carthew Lake (upper),1,0,0,0,0,0,0,0,0,0,0,0,0,1,0,0,0,0,0,0,0,1,0,0,0,0,0,0,0,0,0,0,0,0,0,0,0,0,0,0,0,0,0,0,0,0,0,0,49.02521822,-113.995738,1,1971,Anderson_Donald_1976a,EC_CWS,2
361,Buffalo Paddock Pond (W45C),1,0,0,0,0,1,0,0,0,0,0,0,1,1,0,0,0,0,0,0,1,0,0,0,0,1,0,0,0,0,0,0,0,0,0,1,0,0,0,0,0,0,0,0,0,0,1,0,49.12484491,-113.8644048,0,1975,Anderson_Donald_1976b,EC_CWS,1
362,Beaver Pond A (W33),0,0,0,0,0,0,0,0,0,1,0,0,0,0,0,0,0,0,0,0,0,0,1,0,0,0,0,0,0,0,0,0,0,0,0,1,0,0,0,0,1,0,0,0,0,0,0,0,49.05564483,-113.7416663,1,1971,Anderson_Donald_1976b,EC_CWS,1
363,Indian Springs Pond (W49),0,0,0,0,0,0,0,0,0,0,0,0,0,1,0,0,0,0,0,0,1,0,0,0,0,0,0,1,0,0,0,0,0,0,0,0,0,0,1,0,0,0,0,0,0,0,1,0,49.12435113,-113.878414,0,1975,Anderson_Donald_1976b,EC_CWS,1
364,Peck's Basin,1,0,0,0,0,0,0,0,0,0,0,0,0,1,0,0,0,0,0,0,0,0,0,0,0,0,0,0,0,0,0,0,0,0,0,0,0,0,0,0,0,0,0,0,0,0,0,0,49.12102701,-114.147412,0,1971,Anderson_Donald_1976b,EC_CWS,2
365,Indian Springs Pond (W48C),1,0,0,0,0,0,0,0,0,0,0,0,1,1,0,0,1,0,0,0,1,0,0,0,0,0,0,1,0,0,0,0,0,0,0,0,0,0,1,0,0,0,0,0,0,0,1,0,49.12963476,-113.8786789,0,1975,Anderson_Donald_1976b,EC_CWS,2
366,Lineham Lake (main),1,0,0,0,0,0,0,0,0,0,0,0,0,0,0,0,0,0,0,0,0,0,0,0,0,0,0,1,0,0,0,0,0,0,0,0,0,0,0,0,0,0,0,0,0,0,0,0,49.07191565,-114.061475,1,1971,Anderson_Donald_1976a,EC_CWS,1
367,Indian Springs Pond (W48A),1,0,0,0,1,0,1,0,0,0,0,0,1,1,0,0,0,0,0,0,1,1,0,0,0,0,0,1,0,0,0,0,0,0,0,1,0,0,1,0,0,0,0,0,1,0,1,0,49.12757982,-113.8784639,0,1975,Anderson_Donald_1976b,EC_CWS,2
368,Buffalo Lake,1,0,0,0,0,1,0,0,0,1,0,0,1,1,0,0,0,0,0,0,1,0,1,0,0,1,0,0,0,0,0,0,0,0,0,1,0,0,0,0,1,0,0,0,0,0,0,0,49.12918618,-113.8584308,1,1975,Anderson_Donald_1976a,EC_CWS,2
370,Loon Lake,1,0,0,0,0,0,0,0,0,0,0,0,0,1,0,0,0,0,0,0,1,0,0,0,0,0,0,0,0,0,0,0,0,0,0,1,0,0,0,0,0,0,0,1,0,0,0,0,49.04497039,-113.8937947,0,1971,Anderson_Donald_1976b,EC_CWS,1
371,Summit Lake,1,0,0,0,0,0,0,0,0,0,0,0,0,1,0,0,0,0,0,0,1,0,0,0,0,0,0,0,0,0,0,0,1,0,0,0,0,0,0,0,0,0,0,0,0,0,0,0,49.0070112,-114.0251727,0,1975,Anderson_Donald_1976b,EC_CWS,3
372,Cameron Lake,1,0,0,0,0,0,0,0,0,1,0,0,0,0,0,0,1,0,0,0,0,1,0,0,0,0,0,0,0,0,0,0,0,0,0,0,0,0,0,0,0,0,0,0,0,0,0,0,49.00806642,-114.049345,1,1975,Anderson_Donald_1976a,EC_CWS,4
373,Lonesome Lake,1,1,0,0,1,0,1,0,0,0,0,0,1,1,0,0,0,0,0,0,1,1,0,0,0,1,0,0,0,0,0,0,0,0,0,1,0,0,0,0,1,0,0,0,0,0,1,0,49.07392402,-113.8912595,0,1975,Anderson_Donald_1976b,EC_CWS,3
374,Bertha Lake,1,0,0,0,0,0,0,0,0,1,0,0,0,0,0,0,1,0,0,0,0,1,0,0,0,0,0,0,0,0,0,0,0,0,0,0,0,0,0,0,0,0,0,0,0,0,0,0,49.02315026,-113.9438177,1,1995,Donald_1996_Pers_Comms,EC_CWS,3
375,Crypt Lake,1,0,0,0,0,0,0,0,0,0,0,0,0,0,0,0,0,0,0,0,0,0,0,0,0,0,0,1,0,0,0,0,0,0,0,0,0,0,0,0,0,0,0,0,0,0,0,0,49.00141124,-113.8405757,0,1975,Anderson_Donald_1976a,EC_CWS,2
376,Lone Lake,1,0,0,0,0,0,0,0,0,0,0,0,0,0,0,0,1,0,0,0,0,0,0,0,0,0,0,0,0,0,0,0,1,0,0,0,0,0,0,0,0,0,0,0,0,0,0,0,49.08861595,-114.1313528,1,1971,Anderson_Donald_1976a,EC_CWS,1
377,Alderson Lake,1,0,0,0,1,1,0,0,0,0,0,0,0,1,0,0,0,0,0,0,0,0,1,0,0,0,0,1,0,0,0,0,0,0,0,0,0,0,0,0,0,0,0,0,0,0,0,0,49.0294369,-113.9750022,1,1975,Anderson_Donald_1976a,EC_CWS,3
378,Rowe Lake (lower),1,0,0,0,0,0,0,0,0,1,0,0,0,0,0,0,1,1,0,0,0,0,0,0,0,1,0,0,0,0,0,0,0,0,0,0,0,0,0,0,0,0,0,0,0,0,0,0,49.05337345,-114.0502761,0,1975,Anderson_Donald_1976a,EC_CWS,3
379,Linnet Lake,0,1,0,0,1,0,0,0,0,1,0,0,0,1,0,0,1,0,0,0,1,0,1,1,0,1,0,0,0,0,0,0,0,0,0,0,1,0,0,0,1,0,0,0,0,0,0,0,49.06174054,-113.9048733,1,1975,Anderson_Donald_1976b,EC_CWS,6
380,Rowe Lake (upper),0,0,0,0,0,0,0,0,0,0,0,0,0,1,0,0,0,0,0,1,0,0,0,0,0,1,0,0,0,0,1,0,0,0,0,0,0,0,0,0,0,0,0,0,0,0,0,0,49.05056398,-114.0593126,0,1975,Anderson_Donald_1976b,EC_CWS,3
381,Indian Springs North Pond (W47),1,0,0,0,1,0,1,0,0,0,0,1,1,1,0,0,0,0,0,0,1,0,0,0,0,1,0,1,0,0,0,0,0,0,0,1,0,0,1,0,1,0,0,0,0,0,1,0,49.13177628,-113.8736341,0,1975,Anderson_Donald_1976b,EC_CWS,2
382,Goat Lake,0,0,0,0,0,0,0,0,0,0,0,0,0,0,0,0,0,0,0,0,0,0,1,0,0,0,0,0,0,0,0,0,0,0,0,0,0,0,0,0,0,0,0,0,0,0,0,0,49.1629509,-114.0912916,1,1975,Anderson_Donald_1976a,EC_CWS,3
383,Giant's Mirror,1,0,1,0,1,0,0,0,0,0,0,0,1,1,0,0,1,0,0,0,0,0,1,0,0,1,0,0,0,0,0,0,0,0,0,0,0,0,0,0,1,0,0,0,1,0,1,0,49.05220571,-113.6868738,1,1971,Anderson_Donald_1976a,EC_CWS,1
384,Akamina Lake,1,0,0,0,0,0,0,0,0,1,0,0,1,1,0,0,0,0,0,0,1,0,0,0,0,1,0,0,0,0,0,0,0,0,0,0,0,0,0,0,0,0,0,0,0,0,0,0,49.02332466,-114.0402063,1,1971,Anderson_Donald_1976a,EC_CWS,1
385,Crandell Lake,0,0,0,0,0,0,0,0,0,1,0,0,1,0,0,0,1,1,0,0,0,1,1,0,0,0,0,0,0,0,0,0,0,0,0,0,0,0,0,0,0,0,0,0,0,0,0,0,49.08681008,-113.9674315,1,1975,Anderson_Donald_1976a,EC_CWS,4
386,Kesler Lake,0,1,0,0,0,0,0,0,0,1,0,0,1,1,0,0,0,0,0,0,1,0,1,0,0,0,1,0,0,0,0,0,0,0,0,1,0,0,0,0,0,0,0,0,0,0,0,0,49.18313645,-113.9371776,0,1971,Anderson_Donald_1976b,EC_CWS,1
387,Ruby Lake,0,1,0,0,0,0,0,0,0,0,0,0,0,0,0,0,0,0,0,0,1,0,1,0,0,1,0,0,0,0,0,0,0,0,0,0,0,0,0,0,0,0,0,0,0,0,0,0,49.09238934,-114.0197412,0,1971,Anderson_Donald_1976a,EC_CWS,1
388,Beaver Pond C (W63),0,0,0,0,0,0,0,0,0,0,0,0,1,1,0,0,1,0,0,0,0,0,1,0,0,1,1,0,0,0,0,0,0,0,0,0,0,0,0,0,1,0,0,0,0,0,0,0,49.12139833,-113.8492235,1,1975,Anderson_Donald_1976b,EC_CWS,1
389,Beaver Pond E (W65),1,0,0,0,0,0,0,0,0,1,0,0,1,1,0,0,1,0,0,0,1,0,1,0,0,1,0,0,0,0,0,0,0,0,0,1,0,0,0,0,1,0,1,0,1,0,1,0,49.12690689,-113.8538441,0,1975,Anderson_Donald_1976b,EC_CWS,1
390,Bellevue Terrace (north pond),0,0,0,0,0,0,0,0,0,0,0,1,0,1,0,0,0,0,0,0,1,0,0,0,0,0,0,0,0,0,0,0,0,0,0,0,0,0,0,0,0,0,0,0,0,0,0,0,49.10538822,-113.8757813,0,1975,Anderson_Donald_1976b,EC_CWS,1
391,Bellevue Terrace (south pond),1,0,0,0,1,0,0,0,0,0,0,1,1,0,0,0,0,0,0,0,1,0,0,0,0,0,0,0,0,0,0,0,0,0,0,0,0,0,0,0,0,0,0,0,0,0,1,0,49.10413924,-113.8778741,0,1975,Anderson_Donald_1976b,EC_CWS,1
392,Indian Springs Pond (W48B),1,0,0,1,0,0,0,0,0,0,0,0,1,1,0,0,0,0,0,0,1,1,0,0,0,1,0,1,0,0,0,0,0,0,0,1,0,0,1,0,0,1,0,0,0,0,1,0,49.12870803,-113.8786801,0,1975,Anderson_Donald_1976b,EC_CWS,2
393,Indian Springs Pond (W48D),0,0,0,0,0,0,0,0,0,0,0,0,0,0,0,0,0,0,0,0,0,0,0,0,0,0,0,0,0,0,0,0,0,0,0,0,0,0,0,0,0,0,0,0,0,0,1,0,49.13019367,-113.8779161,0,1975,Anderson_Donald_1976b,EC_CWS,1
394,Indian Springs Pond (W48E),0,0,0,0,0,0,0,0,0,0,0,0,0,0,0,0,0,0,0,0,1,0,0,0,0,0,0,0,0,0,0,0,0,0,0,0,0,0,0,0,0,0,0,0,0,0,1,0,49.13153952,-113.8762666,0,1975,Anderson_Donald_1976b,EC_CWS,1
395,Indian Springs Pond (W50B),1,0,0,0,1,0,0,0,0,0,0,0,1,0,0,0,0,0,0,0,1,0,0,0,0,0,0,0,0,0,0,0,0,0,0,0,0,0,0,0,0,0,0,0,0,0,1,0,49.12569017,-113.8806301,0,1975,Anderson_Donald_1976b,EC_CWS,1
396,Temporary Pond (W60),1,0,0,0,1,0,0,0,0,0,0,1,1,0,0,0,0,0,0,1,1,0,0,0,0,0,0,0,0,0,0,0,0,0,0,0,0,0,0,0,0,1,0,0,0,0,1,0,49.0684806,-113.8898343,0,1975,Anderson_Donald_1976b,EC_CWS,3
397,Waterton Lake (lower),1,0,1,0,1,0,0,0,0,1,0,0,1,1,0,0,1,0,0,0,0,0,1,0,0,0,0,0,0,0,0,0,0,0,0,0,1,0,0,0,0,0,0,0,0,0,0,0,49.05250448,-113.8807625,1,1975,Anderson_et_al_1976,EC_CWS,7
398,Twintree Lake,1,0,0,0,0,0,0,0,0,0,0,0,0,0,0,0,0,0,0,0,0,0,0,0,0,0,0,1,0,0,0,0,0,0,0,0,1,0,0,0,0,0,0,0,0,0,0,0,53.38217457,-119.0947652,1,1983,Donald_et_al_1985,EC_CWS,1
400,Hidden Lake,1,1,0,0,0,0,0,0,0,0,0,0,0,0,0,0,0,0,0,0,1,0,0,0,0,0,0,0,0,0,0,0,0,0,0,0,0,0,0,0,0,0,1,0,0,0,0,0,52.87810479,-118.1607927,1,1978,Anderson_Donald_1980,EC_CWS,1
401,Summit Lake (north),1,0,1,0,0,0,0,0,0,0,0,0,0,1,0,0,0,0,0,1,0,0,0,0,0,0,0,1,0,0,0,0,0,0,0,0,0,0,1,0,0,0,0,0,0,0,0,0,52.89379611,-117.7658784,0,1968,Anderson_1974,EC_CWS,1
402,Trefoil Lake (#2),0,0,0,0,0,0,0,0,0,1,1,0,0,1,0,0,0,1,0,0,1,0,1,0,0,0,0,0,0,0,0,0,0,0,0,0,0,0,1,0,0,0,0,0,0,0,0,0,52.89148954,-118.0509312,1,1994,Donald_1996_Pers_Comms,EC_CWS,2
403,Honeymoon Lake (little),0,1,0,0,0,0,0,0,0,1,0,0,0,1,0,0,0,0,0,0,1,0,1,1,0,1,0,0,0,0,0,0,0,0,0,0,0,0,0,0,0,1,0,1,0,0,0,0,52.56027567,-117.6848968,0,1996,Donald_et_al_2001,EC_CWS,3
404,O'Beirne Lake #3,0,0,0,0,0,0,0,0,0,0,0,0,0,0,0,0,0,0,0,0,0,0,0,0,0,0,0,1,0,0,1,0,0,0,0,0,0,0,0,0,0,0,0,0,0,0,0,0,52.91386284,-118.6108965,0,1983,Donald_et_al_1985,EC_CWS,1
405,Amber (#4),0,0,0,0,0,0,0,0,0,0,0,0,0,0,0,0,0,0,0,0,0,0,0,0,0,0,0,1,0,0,0,0,0,0,0,0,0,0,0,0,0,0,0,0,0,0,0,0,52.81481688,-117.8876286,0,1968,Anderson_1974,EC_CWS,1
406,Henry Pond (west),0,0,0,0,0,0,0,0,0,0,0,0,0,1,0,0,0,0,0,0,0,0,1,0,0,0,0,1,0,0,0,0,0,0,0,0,0,0,0,0,0,0,0,0,0,0,0,0,52.93837386,-118.2773128,0,1968,Anderson_1974,EC_CWS,1
407,Leach Pond (#1),0,0,0,0,0,0,0,0,0,1,0,0,0,0,0,0,0,0,0,0,0,1,0,0,0,0,0,0,0,0,0,0,0,0,0,0,0,0,1,0,0,0,0,1,0,0,0,0,52.68246266,-117.8998097,0,1970,Anderson_1974,EC_CWS,1
409,Dolly Lake,1,0,0,0,0,0,0,0,0,0,0,0,0,1,0,0,0,0,0,0,1,0,0,0,0,1,0,1,0,0,0,0,0,0,0,0,0,0,0,0,0,0,0,0,0,0,0,0,53.30578882,-118.6138613,1,1983,Donald_et_al_1985,EC_CWS,1
410,Kidney Lake,1,1,1,0,0,0,0,0,0,1,1,0,0,1,0,0,0,1,1,0,1,1,1,0,0,1,0,0,0,0,0,0,0,0,0,0,0,0,0,1,1,0,0,0,0,0,0,0,53.35358822,-118.3490727,0,1984,Donald_et_al_1985,EC_CWS,1
411,Caribou Lake (lower),0,0,0,0,0,0,0,0,0,0,0,0,0,0,0,0,0,0,0,0,0,0,0,0,0,0,0,0,0,0,0,0,0,0,0,0,1,0,0,0,1,0,0,0,0,0,0,0,53.41679575,-118.940275,1,1980,Donald_et_al_1985,EC_CWS,1
412,Sassenach Lake #2,1,0,0,0,0,0,0,0,0,0,0,0,0,0,0,0,1,0,0,0,0,0,1,0,0,0,0,0,0,0,0,0,0,0,0,0,0,0,0,0,0,0,0,0,0,0,0,0,53.22837699,-118.3768035,0,1984,Donald_et_al_1985,EC_CWS,1
413,Caribou Lake (upper),1,0,0,0,0,0,0,0,0,0,0,0,0,1,0,0,0,0,0,0,0,0,0,0,0,0,0,0,0,0,0,0,0,0,0,0,1,0,0,0,0,0,0,0,0,0,0,0,53.40834359,-118.9590434,1,1980,Donald_et_al_1985,EC_CWS,1
414,Topaz Lake,1,0,0,0,0,0,0,0,0,0,0,0,0,0,0,0,0,0,0,0,1,0,0,0,0,0,0,0,0,0,0,0,0,0,0,0,1,0,0,0,1,0,0,0,0,0,0,0,53.3889607,-118.8504457,1,1980,Donald_et_al_1985,EC_CWS,1
415,Princess Lake,1,1,0,0,0,0,0,0,0,0,0,0,0,0,0,0,0,0,0,0,1,0,0,0,0,1,0,0,0,0,0,0,0,0,0,0,0,0,0,0,1,0,0,0,1,0,0,0,53.18908789,-118.0690599,1,1970,Anderson_1974,EC_CWS,1
416,Celestine Lake,1,1,0,0,1,1,1,0,0,1,0,1,1,1,0,0,0,1,0,0,1,1,0,0,0,1,0,0,0,0,0,0,0,0,0,0,0,0,0,0,1,1,0,1,0,0,0,0,53.18702042,-118.0467835,1,1979,Donald_et_al_1985,EC_CWS,3
417,Caribou Lake,0,0,0,0,0,0,0,0,0,0,0,0,0,0,0,0,0,0,0,1,0,0,0,0,0,0,0,1,0,0,0,0,0,0,0,0,0,0,0,0,0,0,0,0,0,0,0,0,52.73997701,-117.7974698,0,1968,Anderson_1974,EC_CWS,1
418,High Lake One,0,1,0,0,0,0,0,0,0,0,0,0,0,0,0,0,0,0,0,0,1,0,0,0,0,0,0,0,0,0,0,0,0,0,0,0,0,0,0,0,0,0,1,0,0,0,0,0,52.88915966,-118.2070613,0,1978,Anderson_Donald_1980,EC_CWS,1
419,Talus Lake,0,0,0,0,0,0,0,0,0,0,0,0,0,0,0,0,0,0,0,0,0,0,1,0,0,0,0,1,0,0,0,0,0,0,0,0,0,0,1,0,0,0,0,0,0,0,0,0,52.65603916,-117.7002893,0,1967,Anderson_1974,EC_CWS,1
420,Henry Pond (east),1,0,0,0,0,0,0,0,0,0,0,0,0,1,0,0,0,0,0,1,0,0,0,0,0,0,0,0,0,0,0,0,0,0,0,0,0,0,0,0,0,0,0,0,0,0,0,0,52.93646608,-118.2691024,0,1968,Anderson_1974,EC_CWS,1
421,Geraldine Lake #2,0,0,0,0,0,1,0,0,0,0,0,0,0,0,0,0,0,0,0,0,0,0,0,0,0,0,0,0,0,0,0,0,0,0,0,0,0,0,0,0,0,0,0,0,0,0,0,0,52.60705757,-117.9316824,1,1979,Donald_DeHenau_1981,EC_CWS,1
422,Rocky (#1),0,0,0,0,0,0,0,0,0,0,0,0,0,1,0,0,0,0,0,0,1,0,0,0,0,0,0,1,0,0,0,0,0,0,0,0,0,0,0,0,0,0,0,0,0,0,0,0,52.70479359,-117.4545709,0,1970,Anderson_1974,EC_CWS,1
423,Twin Lake (south),1,1,0,0,0,0,1,0,0,1,0,1,1,1,0,0,1,0,0,0,0,0,1,0,0,1,0,0,0,0,0,0,0,0,0,0,0,0,0,0,0,0,0,1,1,0,0,0,52.86785952,-118.0705199,1,1968,Anderson_1970b,EC_CWS,2
424,Ultramaligne Lake,0,0,0,0,0,0,0,0,0,0,0,0,0,0,0,0,0,0,0,0,0,0,0,0,0,0,0,1,0,0,0,0,0,0,0,0,0,0,0,0,0,0,0,0,0,0,0,0,52.59810465,-117.4959425,0,1967,Anderson_1974,EC_CWS,1
426,Moab Lake,1,1,0,0,0,0,1,0,0,1,0,0,0,1,0,0,1,0,0,0,0,1,0,1,0,1,0,0,0,0,0,0,0,0,0,0,0,0,0,0,1,1,1,1,0,0,0,0,52.66110362,-117.9558381,1,1994,Donald_1996_Pers_Comms,EC_CWS,8
427,Branchinecta Pond,0,0,0,0,0,0,0,0,0,0,0,0,0,0,0,0,0,0,0,0,1,0,0,0,0,0,0,0,0,0,1,0,0,0,0,0,0,0,1,0,0,0,0,0,0,0,0,0,52.4836913,-117.4278434,0,1967,Anderson_1974,EC_CWS,1
428,Geraldine Lake (lower),1,0,0,0,0,0,0,0,0,0,0,0,0,1,0,0,0,0,0,0,0,0,0,0,0,0,0,0,0,0,0,0,0,0,0,0,0,0,0,0,0,0,0,0,0,0,0,0,52.61569196,-117.9289264,1,1979,Donald_DeHenau_1981,EC_CWS,2
429,Catacombs Lake,1,0,0,0,0,0,0,0,0,0,0,0,0,1,0,0,0,0,0,1,0,0,0,0,0,0,0,1,0,0,1,0,0,0,0,0,0,0,0,0,0,0,0,0,0,0,0,0,52.43642624,-117.7844467,0,1969,Anderson_1974,EC_CWS,1
430,Ouzel Lake (upper),0,0,0,0,0,0,0,0,0,0,0,0,0,0,0,0,0,0,0,0,0,0,0,0,0,0,0,1,0,0,0,0,0,0,0,0,0,0,0,0,0,0,0,0,0,0,0,0,52.50957246,-117.4776617,0,1967,Anderson_1974,EC_CWS,1
431,Amber (#2),1,0,0,0,0,0,0,0,0,0,0,0,0,1,0,0,0,0,0,0,0,0,0,0,0,0,0,1,0,0,0,0,0,0,0,0,0,0,0,0,0,0,0,0,0,0,0,0,52.81355983,-117.8922174,0,1968,Anderson_1974,EC_CWS,1
432,Cairngorm Lake (north),0,0,0,0,0,0,0,0,0,0,0,0,0,0,0,0,0,0,0,0,0,0,1,0,0,0,0,1,0,0,0,0,0,0,0,0,0,0,0,0,0,0,0,0,0,0,0,0,52.93690655,-118.2140738,0,1997,Donald_1996_Pers_Comms,EC_CWS,2
433,Mile 16 1/2 Lake,1,1,0,0,0,1,0,0,0,1,0,0,1,1,0,0,1,0,0,0,1,1,0,0,0,1,0,0,0,0,0,0,0,0,0,0,0,0,1,0,1,0,1,1,0,0,0,0,52.70923369,-117.910633,1,1994,Donald_1996_Pers_Comms,EC_CWS,3
434,Eagle Lake,0,0,0,0,0,0,0,0,0,0,0,0,0,1,0,0,0,0,0,0,1,0,1,0,0,0,0,1,0,0,0,0,0,0,0,0,0,0,0,0,0,0,0,0,0,0,0,0,53.13889343,-118.6286035,0,1968,Anderson_1974,EC_CWS,1
435,Lily Pond,1,1,0,0,0,0,0,0,0,0,0,0,0,1,0,0,0,0,0,0,1,0,0,0,0,0,0,0,0,0,0,0,0,0,0,0,0,0,0,0,1,0,0,0,0,0,1,0,52.87859579,-118.2263981,1,1970,Anderson_1974,EC_CWS,1
436,High Lake Three,1,1,1,0,0,0,0,0,0,0,0,0,0,0,0,0,0,0,0,0,1,0,0,0,0,0,0,0,0,0,0,0,0,0,0,0,0,0,0,0,0,1,0,0,0,0,1,0,52.89581677,-118.2198229,0,1978,Anderson_Donald_1980,EC_CWS,1
437,High Lake Five,1,1,0,0,0,0,0,0,0,0,0,0,0,0,0,0,0,0,0,0,0,1,0,0,0,0,0,0,0,0,0,0,0,0,0,0,0,0,0,0,0,1,0,0,0,0,0,0,52.90351076,-118.2399332,0,1978,Anderson_Donald_1980,EC_CWS,1
438,Summit Lake (south),1,0,1,0,0,0,1,0,0,0,0,0,0,1,0,0,1,1,0,0,1,0,0,0,0,0,1,1,0,0,0,0,0,0,0,0,0,0,1,0,0,0,0,0,0,0,1,0,52.88642152,-117.7551071,0,1968,Anderson_1974,EC_CWS,1
439,High Lake Two,1,1,1,0,1,0,1,0,0,0,0,0,0,1,0,0,1,0,0,0,1,1,0,0,0,0,0,0,0,0,0,0,0,0,0,0,0,0,0,0,1,0,0,0,0,0,1,0,52.89105381,-118.2135056,0,1978,Anderson_Donald_1980,EC_CWS,1
440,Pika Lake (north),0,0,0,0,0,0,0,0,0,0,0,0,0,1,0,0,0,0,0,1,0,0,0,0,0,0,0,1,0,0,0,0,0,0,0,0,0,0,0,0,0,0,0,0,0,0,0,0,52.48951463,-117.4502862,0,1967,Anderson_1974,EC_CWS,1
441,Kerr Lake (north),0,0,0,0,0,0,0,0,0,0,0,0,0,1,0,0,0,0,0,0,0,0,1,0,0,0,0,1,0,0,0,0,0,0,0,0,0,0,0,0,0,0,0,0,0,0,0,0,52.93998093,-118.2376125,0,1968,Anderson_1974,EC_CWS,1
442,Long Lake,0,0,0,0,0,0,0,0,0,0,0,0,0,0,0,0,0,0,0,0,0,0,0,0,0,0,0,0,0,0,0,0,0,0,0,0,0,0,1,0,0,0,0,1,0,0,0,0,52.44300589,-117.6562853,1,1979,Donald_DeHenau_1981,EC_CWS,1
443,High Lake Six,1,1,0,0,0,0,0,0,0,0,0,0,0,0,0,0,0,0,0,0,0,1,0,0,0,0,0,0,0,0,0,0,0,0,0,0,0,0,0,0,0,1,0,0,0,0,0,0,52.89867032,-118.2505736,0,1978,Anderson_Donald_1980,EC_CWS,1
444,Center Lake (south),1,0,0,0,0,0,0,0,0,0,0,0,0,0,0,0,0,0,0,0,0,0,0,0,0,0,0,1,0,0,0,0,0,0,0,0,0,0,0,0,0,0,0,0,0,0,0,0,52.82426323,-117.9116262,0,1968,Anderson_1974,EC_CWS,1
445,Lectern Lake,1,1,0,0,0,0,0,0,0,0,0,0,0,0,0,0,0,0,0,0,1,1,0,0,0,0,0,0,0,0,0,0,0,0,0,0,0,0,0,0,1,0,1,0,0,0,0,0,52.77146142,-118.0571545,1,1996,Donald_1996_Pers_Comms,EC_CWS,3
446,Outer Rink Lake,0,0,0,0,0,0,0,0,0,0,0,0,0,0,0,0,0,0,0,1,0,0,1,0,0,0,0,1,0,0,1,0,0,0,0,0,0,0,0,0,0,0,0,0,0,0,0,0,52.92271903,-118.5834669,0,1970,Anderson_1974,EC_CWS,1
447,Kerkeslin Lake,0,0,0,0,0,0,0,0,0,0,0,0,0,1,0,0,0,0,0,0,0,0,0,0,0,0,0,0,0,0,0,0,0,0,0,0,0,0,0,0,0,0,0,0,0,0,0,0,52.65452308,-117.7830671,0,1979,Donald_DeHenau_1981,EC_CWS,1
448,Moren Pond (#1),1,0,0,0,0,0,0,0,0,0,0,0,0,0,0,0,0,0,0,0,0,0,0,0,0,0,0,0,0,0,0,0,1,0,0,0,0,0,0,0,0,0,0,0,0,0,0,0,53.01439633,-118.5450811,0,1970,Anderson_1974,EC_CWS,1
449,Cavell Lake (upper),0,0,0,0,0,0,0,0,0,1,0,0,0,0,0,0,0,0,0,1,0,0,1,0,0,0,0,1,0,0,0,0,0,0,0,0,0,0,0,0,0,0,0,0,0,0,0,0,52.68570074,-118.019502,0,1996,Donald_1996_Pers_Comms,EC_CWS,2
450,Divergence Lake,0,0,0,0,0,0,0,0,0,0,0,0,0,0,0,0,0,0,0,1,0,0,0,0,0,0,0,1,0,0,0,0,0,0,0,0,0,0,0,0,0,0,0,0,0,0,0,0,52.49917269,-117.9718856,0,1969,Donald_1996_Pers_Comms,EC_CWS,1
451,Fryatt Lake (upper),1,0,0,0,0,0,0,0,0,0,0,0,0,0,0,0,0,0,0,0,0,0,0,0,0,0,0,1,0,0,0,0,0,0,0,0,0,0,0,0,0,0,0,0,0,0,0,0,52.54901012,-117.9515867,0,1969,Anderson_1974,EC_CWS,1
452,Chalet Pond,1,0,0,0,0,0,0,0,0,0,0,0,0,1,0,0,0,0,0,0,0,0,0,0,0,0,0,0,0,0,0,0,0,0,0,0,0,0,0,0,0,0,0,0,0,0,0,0,52.21895601,-117.2229523,1,1979,Donald_DeHenau_1981,EC_CWS,1
453,Medicine Tent (#2),1,0,0,0,0,0,0,0,0,0,0,0,0,0,0,0,0,0,0,0,0,0,0,0,0,0,0,1,0,0,0,0,0,0,0,0,0,0,1,0,0,0,0,0,0,0,0,0,52.72897138,-117.1757149,0,1970,Anderson_1974,EC_CWS,1
454,Amber (#1),1,0,0,0,0,0,0,0,0,0,0,0,0,1,0,0,0,0,0,0,0,0,0,0,0,0,0,1,0,0,0,0,0,0,0,0,0,0,0,0,0,0,0,0,0,0,0,0,52.8113951,-117.8883749,0,1968,Anderson_1974,EC_CWS,1
455,Geraldine Lake #5,1,0,0,0,0,0,0,0,0,0,0,0,0,0,0,0,0,0,0,0,0,0,0,0,0,0,0,1,0,0,0,0,0,0,0,0,0,0,0,0,0,0,0,0,0,0,0,0,52.57065521,-117.9487057,0,1979,Donald_DeHenau_1981,EC_CWS,1
456,Zengel Pond,0,0,0,0,0,0,0,0,0,0,0,0,0,0,0,0,0,0,0,0,0,0,1,0,0,0,0,0,0,0,0,0,0,0,0,0,0,0,0,0,0,0,0,0,0,0,0,0,52.97785946,-118.1652667,0,1968,Anderson_1974,EC_CWS,1
457,Trapper Pond (upper),1,0,0,0,0,0,0,0,0,0,0,0,0,1,0,0,0,0,0,1,0,0,0,0,0,0,0,0,0,0,1,0,1,0,0,0,0,0,0,0,0,0,0,0,0,0,0,0,52.66369849,-117.6755557,0,1968,Anderson_1974,EC_CWS,1
458,Pocahontas Pond,0,1,0,0,0,0,1,0,0,1,0,0,1,0,0,0,1,0,0,0,1,0,1,1,0,0,0,0,0,0,0,0,0,0,0,1,0,0,0,0,0,0,0,1,0,0,0,0,53.20892857,-117.9180932,1,1969,Anderson_1970b,EC_CWS,1
459,Geraldine Lake #4,1,0,0,0,0,0,0,0,0,0,0,0,0,0,0,0,0,0,0,0,0,0,0,0,0,0,0,1,0,0,0,0,0,0,0,0,0,0,0,0,0,0,0,0,0,0,0,0,52.57702038,-117.9487103,0,1979,Donald_DeHenau_1981,EC_CWS,1
460,High Lake Four,0,1,0,0,0,0,0,0,0,0,0,0,0,0,0,0,0,0,0,0,1,1,0,0,0,0,0,0,0,0,0,0,0,0,0,0,0,0,0,0,1,1,0,0,0,0,1,0,52.89817476,-118.2300283,0,1978,Anderson_Donald_1980,EC_CWS,1
461,Wabasso Lake,0,0,0,0,0,0,0,0,0,0,0,0,0,1,0,0,0,0,0,0,0,0,1,0,0,0,0,0,0,0,0,0,0,0,0,0,0,0,0,0,0,0,0,0,0,0,0,0,52.78777395,-117.9867421,0,1970,Anderson_1974,EC_CWS,1
462,Maligne Lake,1,0,0,0,0,0,0,0,0,1,0,0,0,1,0,0,0,0,0,0,1,0,0,0,0,0,0,1,0,0,0,0,0,0,0,0,1,0,0,0,0,0,0,1,0,0,0,0,52.68269068,-117.5795029,1,1994,Donald_1996_Pers_Comms,EC_CWS,6
463,Ouzel Lake (lower),1,0,0,0,0,0,0,0,0,0,0,0,0,1,0,0,0,0,0,1,0,0,0,0,0,0,0,1,0,0,0,0,0,0,0,0,0,0,0,0,0,0,0,0,0,0,0,0,52.50764899,-117.470819,0,1967,Anderson_1974,EC_CWS,1
464,Hostel Pond (Mile 54),1,0,0,0,0,0,0,0,0,0,0,0,0,0,0,0,0,0,0,0,0,0,0,0,0,1,0,0,0,0,0,0,0,0,0,0,0,0,0,0,1,0,0,0,0,0,0,0,52.346173,-117.340668,1,1979,Donald_DeHenau_1981,EC_CWS,1
465,Whitewater Lake,0,0,0,0,0,0,0,0,0,0,0,0,0,1,0,0,0,0,0,0,0,0,0,0,0,0,0,1,0,0,0,0,0,0,0,0,0,0,1,0,0,0,0,0,0,0,0,0,52.49607818,-117.4594711,0,1967,Anderson_1974,EC_CWS,1
466,Mitchell Lake,1,0,0,0,0,0,0,0,0,0,0,0,0,0,0,0,0,0,0,1,0,0,0,0,0,0,0,1,0,0,1,0,0,0,0,0,0,0,0,0,0,0,0,0,0,0,0,0,52.42384168,-117.4774257,0,1979,Donald_DeHenau_1981,EC_CWS,1
467,O'Beirne Lake #2,1,0,0,0,0,0,0,0,0,0,0,0,0,0,0,0,0,0,0,1,0,0,0,0,0,0,0,1,0,0,1,0,1,0,0,0,0,0,0,0,0,0,0,0,0,0,0,0,52.91348678,-118.6041452,0,1983,Donald_et_al_1985,EC_CWS,2
468,O'Beirne Lake #4,0,0,0,0,0,0,0,0,0,0,0,0,0,0,0,0,0,0,0,1,0,0,0,0,0,0,0,1,0,0,1,0,1,0,0,0,0,0,0,0,0,0,0,0,0,0,0,0,52.90783559,-118.600531,0,1983,Donald_et_al_1985,EC_CWS,1
469,Leach Pond (#2),1,1,0,0,0,0,0,0,0,0,0,0,0,1,0,0,0,0,0,0,0,1,0,0,0,0,0,0,0,0,0,0,0,0,0,0,0,0,1,0,0,0,0,1,0,0,0,0,52.67273673,-117.8924812,0,1970,Anderson_1974,EC_CWS,1
470,High Lake Seven,1,1,1,0,0,0,0,0,0,0,0,0,0,0,0,0,0,0,0,0,1,0,0,0,0,0,0,0,0,0,0,0,0,0,0,0,0,0,0,0,0,0,1,1,1,0,0,0,52.89483833,-118.2482186,1,1978,Anderson_Donald_1980,EC_CWS,1
471,Zengel Lake,1,0,0,0,0,0,0,0,0,0,0,0,0,0,0,0,0,0,0,0,0,0,0,0,0,0,0,1,0,0,0,0,0,0,0,0,0,0,0,0,0,0,0,0,0,0,0,0,52.97128775,-118.1879638,0,1968,Anderson_1974,EC_CWS,1
472,Cairngorm Lake (south),0,0,0,0,0,0,0,0,0,0,0,0,0,0,0,0,0,0,0,0,0,0,1,0,0,0,0,1,0,0,0,0,0,0,0,0,0,0,0,0,0,0,0,0,0,0,0,0,52.93019839,-118.2159838,0,1997,Donald_1996_Pers_Comms,EC_CWS,2
473,Unnamed Pond (along Athabasca),1,1,0,0,0,0,0,0,0,0,0,0,0,0,0,0,1,0,0,0,0,1,0,0,0,0,0,0,0,0,0,0,0,0,0,0,0,0,0,0,0,0,0,0,0,0,0,0,52.8498188,-118.0531766,0,1969,Anderson_1970b,EC_CWS,1
474,Twin Lake (north),1,1,0,0,0,1,0,0,0,1,0,0,1,1,0,0,1,0,0,0,0,0,0,0,0,1,0,0,0,0,0,0,0,0,0,0,0,0,1,0,1,0,0,1,0,0,0,0,52.87057352,-118.0716267,0,1968,Anderson_1970b,EC_CWS,1
475,Geraldine Lake #3,1,0,0,0,0,0,0,0,0,0,0,0,0,0,0,0,0,0,0,0,0,0,0,0,0,0,0,1,0,0,0,0,0,0,0,0,0,0,0,0,0,0,0,0,0,0,0,0,52.59246954,-117.9426222,1,1979,Donald_DeHenau_1981,EC_CWS,2
476,Leach Lake,1,1,0,0,0,0,0,0,0,1,0,0,1,1,0,0,1,1,1,0,0,1,1,1,0,1,0,0,0,0,0,0,0,0,0,0,0,0,1,0,1,0,1,0,0,0,0,0,52.693118,-117.904428,1,1996,Donald_1996_Pers_Comms,EC_CWS,5
477,Moraine Pond,1,0,0,0,0,0,0,0,0,0,0,0,0,1,0,0,0,0,0,1,0,0,0,0,0,0,0,1,0,0,0,0,0,0,0,0,0,0,1,0,0,0,0,0,0,0,0,0,53.13737599,-118.619905,0,1994,Donald_1996_Pers_Comms,EC_CWS,2
478,Prairie Leech Pond,1,1,0,0,0,0,1,0,0,0,0,0,0,1,0,0,0,0,0,0,0,0,0,0,0,0,0,0,0,0,0,0,0,0,0,0,0,0,0,0,1,0,0,1,0,0,0,0,52.91919486,-118.3617095,0,1996,Donald_1996_Pers_Comms,EC_CWS,1
479,J436,0,1,0,0,0,0,0,0,0,0,0,0,0,0,0,0,0,0,0,0,1,0,0,0,0,0,0,0,0,0,0,0,0,0,0,0,0,0,0,0,0,0,0,0,0,0,0,0,52.9068324,-118.3260502,0,1995,Donald_et_al_2001,EC_CWS,1
480,Edwards Lake,1,0,0,0,0,0,0,0,0,0,0,0,0,0,0,0,0,0,0,0,0,0,1,0,0,0,0,0,0,0,0,0,0,0,0,0,1,0,0,0,0,0,0,0,0,0,0,0,52.70395484,-117.8664775,1,1995,Donald_1996_Pers_Comms,EC_CWS,3
481,Trapper Lake (upper),0,0,0,0,1,0,0,0,0,0,0,0,0,1,0,0,0,0,0,1,0,0,1,0,0,0,0,0,0,0,1,0,1,0,0,0,0,0,0,0,0,0,0,0,0,0,0,0,52.65036844,-117.6922904,0,1967,Anderson_1974,EC_CWS,1
482,Lick Lake,0,0,0,0,0,0,0,0,0,0,0,0,0,0,0,0,0,0,0,1,0,0,0,0,0,0,0,1,0,0,0,0,0,0,0,0,0,0,0,0,0,0,0,0,0,0,0,0,52.43754033,-117.8791156,0,1969,Anderson_1974,EC_CWS,1
483,Halcyon Lake,0,0,0,0,0,0,0,0,0,0,0,0,0,0,0,0,0,0,0,0,0,0,0,0,0,0,0,1,0,0,0,0,0,0,0,0,0,0,1,0,0,0,0,0,0,0,0,0,52.6641725,-117.7290611,0,1967,Anderson_1974,EC_CWS,1
484,3rd of Five,0,0,0,0,0,0,0,0,0,1,0,0,0,0,0,0,0,0,0,0,1,0,1,0,0,0,0,0,0,0,0,0,0,0,0,0,0,0,0,0,0,0,0,0,0,0,0,0,52.81689317,-118.0070332,1,1995,Donald_1996_Pers_Comms,EC_CWS,1
485,5th of Five,1,1,0,0,0,0,0,0,0,1,0,0,0,1,0,0,1,0,0,0,0,1,1,0,0,0,0,0,0,0,0,0,0,0,0,0,1,0,0,0,0,0,0,1,0,0,0,0,52.81347564,-118.0008114,1,1995,Donald_1996_Pers_Comms,EC_CWS,2
486,Dragon Lake,0,1,0,0,0,0,0,0,0,0,0,0,0,0,0,0,0,0,0,0,1,0,0,0,0,0,0,0,0,0,0,0,0,0,0,0,0,0,0,0,0,0,0,0,0,0,0,0,52.47095788,-117.6641944,1,1979,Donald_DeHenau_1981,EC_CWS,1
487,Rink Lake,0,0,0,0,0,0,0,0,0,0,0,0,0,0,0,0,0,0,0,0,0,0,0,0,0,0,0,0,0,0,0,0,1,0,0,0,0,0,0,0,1,0,0,0,0,0,0,0,52.90317183,-118.5883151,0,1983,Donald_et_al_1985,EC_CWS,2
488,Golden Lake,1,1,0,0,0,0,0,0,0,1,0,0,0,0,0,0,1,0,0,0,1,0,0,0,0,0,0,0,0,0,0,0,0,0,0,0,0,0,0,0,0,0,1,0,1,0,0,0,52.89767119,-118.3276734,1,2000,Donald_et_al_2001,EC_CWS,4
489,Mina Lake,1,1,0,0,0,0,0,0,0,1,1,1,0,1,0,0,0,0,0,0,1,1,0,0,0,0,0,0,0,0,0,0,0,0,0,0,1,0,0,0,1,0,1,1,0,0,0,0,52.883022,-118.1206048,1,1994,Donald_1996_Pers_Comms,EC_CWS,3
490,Tekarra Lake,0,0,0,0,0,0,0,0,0,0,0,0,0,0,0,0,0,0,0,0,1,0,1,0,0,0,0,0,0,0,0,0,0,0,0,0,0,0,0,0,0,0,0,0,0,0,0,0,52.84832734,-117.9519712,0,1968,Anderson_1974,EC_CWS,1
491,Beauvert Lake,0,0,0,0,0,0,1,0,0,1,0,0,0,1,0,0,1,0,0,0,1,0,1,0,0,0,1,0,0,0,0,0,0,0,0,0,1,0,1,0,1,0,0,0,0,0,0,0,52.88191195,-118.0613995,1,1994,Donald_et_al_2001,EC_CWS,5
492,Dorothy Lake,1,1,0,0,1,0,1,0,0,1,0,0,1,1,0,0,1,0,0,0,1,1,0,1,0,1,0,0,0,0,0,0,0,0,0,0,0,0,0,0,1,0,1,1,0,0,0,0,52.88287048,-118.2285845,1,1994,Donald_et_al_2001,EC_CWS,4
493,Nigel Lake (Wilcox),1,0,0,0,0,0,0,0,0,0,0,0,0,1,0,0,0,0,0,0,0,0,0,0,0,0,0,0,0,0,1,0,0,0,0,0,0,0,0,0,0,0,0,0,0,0,0,0,52.24724896,-117.1980324,0,1970,Anderson_1974,EC_CWS,1
494,Beryl Lake,0,0,0,0,0,0,0,0,0,0,0,0,0,0,0,0,0,0,0,1,0,0,1,0,0,0,0,1,0,0,1,0,0,0,0,0,0,0,0,0,0,0,0,0,0,0,0,0,52.64855359,-118.1303584,0,1970,Anderson_1974,EC_CWS,1
495,Iris Lake,1,1,0,0,1,0,0,0,0,1,0,0,1,1,0,0,1,0,0,0,1,1,0,0,0,0,0,0,0,0,0,0,0,0,0,0,1,0,0,0,1,0,1,1,0,0,0,0,52.87786795,-118.221132,1,1994,Donald_et_al_2001,EC_CWS,3
496,Rathlin Lake,1,1,0,0,1,0,0,0,0,0,0,0,0,0,0,0,0,0,0,0,0,1,0,0,0,0,0,0,0,0,0,0,0,0,0,0,0,0,0,0,0,0,0,0,0,0,0,0,52.87542008,-118.1904092,0,1978,Anderson_Donald_1980,EC_CWS,1
497,Wolverine Lake,1,0,0,0,0,0,0,0,0,0,0,0,0,1,0,0,0,0,0,0,0,0,0,0,0,0,0,0,0,0,0,0,0,0,0,0,0,0,0,0,0,0,0,0,0,0,0,0,52.49373048,-117.2541806,0,1967,Anderson_1974,EC_CWS,1
498,Loc Gris,1,0,0,0,0,0,0,0,0,0,0,0,0,0,0,0,0,0,0,0,0,0,0,0,0,0,0,1,0,0,0,0,0,0,0,0,0,0,0,0,0,0,0,0,0,0,0,0,52.59753,-117.2184912,0,1970,Anderson_1974,EC_CWS,1
499,Mahood Lake,1,0,0,0,1,0,0,0,0,0,0,0,0,1,0,0,0,0,0,0,0,0,0,0,0,0,0,0,0,0,0,0,1,0,0,0,0,0,0,0,0,0,0,0,0,0,0,0,53.0234104,-118.5563474,0,1970,Anderson_1974,EC_CWS,1
500,Henry Lake,1,0,0,0,0,0,0,0,0,0,0,0,0,0,0,0,0,0,0,0,0,0,0,0,0,0,0,0,0,0,0,0,0,0,0,0,0,0,0,0,0,0,0,0,0,0,0,0,52.94485662,-118.2646301,0,1968,Anderson_1974,EC_CWS,1
501,Kerr Lake (south),0,0,0,0,0,0,0,0,0,0,0,0,0,1,0,0,0,0,0,0,0,0,1,0,0,0,0,1,0,0,0,0,0,0,0,0,0,0,0,0,0,0,0,0,0,0,0,0,52.93595564,-118.2365305,0,1968,Anderson_1974,EC_CWS,1
502,Kerr Pond,0,0,0,0,0,0,0,0,0,0,0,0,0,1,0,0,0,0,0,0,0,0,1,0,0,0,0,1,0,0,0,0,0,0,0,0,0,0,0,0,0,0,0,0,0,0,0,0,52.94054723,-118.2332982,0,1968,Anderson_1974,EC_CWS,1
503,Cavell Meadows Pond,0,0,0,0,0,0,0,0,0,0,0,0,0,0,0,0,0,0,0,1,0,0,0,0,0,0,0,1,0,0,0,0,0,0,0,0,0,0,0,0,0,0,0,0,0,0,0,0,52.6796346,-118.0480872,1,1994,Donald_1996_Pers_Comms,EC_CWS,1
504,Trefoil Pond (#3),0,1,1,0,0,0,0,0,0,0,0,0,0,1,0,0,0,0,0,0,1,0,1,0,0,1,0,0,0,0,0,0,0,0,0,0,0,0,0,0,0,0,0,0,0,0,0,0,52.89194325,-118.0585527,0,1970,Anderson_1974,EC_CWS,1
505,Trefoil Lake (#1),1,1,0,0,0,0,0,0,0,0,0,0,0,0,0,0,0,0,0,0,1,0,1,0,0,0,0,0,0,0,0,0,0,0,0,0,0,0,1,0,0,0,0,0,0,0,0,0,52.89383486,-118.0540947,1,1994,Donald_1996_Pers_Comms,EC_CWS,2
506,Pika Lake (south),0,0,0,0,0,0,0,0,0,0,0,0,0,1,0,0,0,0,0,0,0,0,0,0,0,0,0,1,0,0,0,0,0,0,0,0,0,0,0,0,0,0,0,0,0,0,0,0,52.48770844,-117.4476905,0,1967,Anderson_1974,EC_CWS,1
507,Rosemarie Pond,0,0,0,0,0,0,0,0,0,0,0,0,0,0,0,0,0,0,0,0,1,0,0,0,0,1,0,0,0,0,0,0,0,0,0,0,0,0,1,0,0,0,0,0,0,0,1,0,52.74056467,-117.6379943,0,1969,Anderson_1974,EC_CWS,1
508,Amber (#3),0,0,0,0,0,0,0,0,0,0,0,0,0,0,0,0,0,0,0,0,0,0,0,0,0,0,0,1,0,0,0,0,0,0,0,0,0,0,0,0,0,0,0,0,0,0,0,0,52.81494726,-117.8894266,0,1968,Anderson_1974,EC_CWS,1
509,Wolf Lake,1,0,0,0,0,0,0,0,0,0,0,0,0,0,0,0,0,0,0,0,1,0,0,0,0,0,0,1,0,0,0,0,0,0,0,0,0,0,0,0,0,0,0,0,0,0,0,0,52.68469447,-117.3935761,0,1970,Anderson_1974,EC_CWS,1
510,Replica Pond,0,0,0,0,1,0,0,0,0,0,0,0,0,0,0,0,0,0,0,1,0,0,0,0,0,0,0,1,0,0,1,0,0,0,0,0,0,0,1,0,0,0,0,0,0,0,0,0,52.50799562,-117.4557646,0,1967,Anderson_1974,EC_CWS,1
511,Coronet Lake,0,0,0,0,0,0,0,0,0,0,0,0,0,0,0,0,0,0,0,0,0,0,1,0,0,0,0,1,0,0,0,0,0,0,0,0,0,0,1,0,0,0,0,0,0,0,0,0,52.55254211,-117.4293239,0,1967,Anderson_1974,EC_CWS,1
512,Palisades Pond,1,1,0,0,0,0,0,0,0,1,0,0,1,1,0,0,1,0,0,0,0,0,0,1,0,1,0,0,0,0,0,0,0,0,0,1,0,0,1,0,0,0,0,1,0,0,0,0,52.96340754,-118.0500987,1,1979,Anderson_1970b,EC_CWS,2
513,Cold Sulfur Pond (south),1,0,0,0,0,0,0,0,0,0,0,0,0,1,0,0,0,0,0,0,1,0,1,0,0,0,0,0,0,0,0,0,0,0,0,1,0,0,0,0,1,0,0,0,0,0,0,0,53.04322687,-118.0843167,0,1969,Anderson_1970b,EC_CWS,1
514,Phalarope Lake,0,0,0,0,0,0,0,0,0,0,0,0,0,0,0,0,0,0,0,0,0,0,0,0,0,0,0,0,0,0,1,0,0,0,0,0,0,0,1,0,0,0,0,0,0,0,0,0,52.48892702,-117.4391903,0,1967,Anderson_1974,EC_CWS,1
515,Medicine Tent (#1),1,0,0,0,0,0,0,0,0,0,0,0,0,0,0,0,0,0,0,1,0,0,0,0,0,0,0,1,0,0,0,0,0,0,0,0,0,0,1,0,0,0,0,0,0,0,0,0,52.71950425,-117.1637144,0,1970,Anderson_1974,EC_CWS,1
516,Edith Pond,1,0,1,0,0,0,0,0,0,0,0,0,1,1,0,0,1,0,0,0,1,0,0,0,0,0,0,0,0,0,0,0,0,0,0,0,0,0,1,0,0,0,0,0,0,0,0,0,52.91441756,-118.0227235,0,1970,Anderson_1974,EC_CWS,1
518,Whirlpool Lake,0,0,0,0,0,0,0,0,0,0,0,0,0,1,0,0,0,0,0,1,0,0,0,0,0,0,0,1,0,0,1,0,0,0,0,0,0,0,0,0,0,0,0,0,0,0,0,0,52.52091299,-118.2271128,0,1969,Anderson_1974,EC_CWS,1
519,Porcupine Lake,0,0,0,0,0,0,0,0,0,0,0,0,0,0,0,0,0,0,0,0,0,0,0,0,0,0,0,1,0,0,0,0,0,0,0,0,0,0,0,0,0,0,0,0,0,0,0,0,53.02746233,-118.476969,0,1968,Anderson_1974,EC_CWS,1
520,Bench Lake,1,1,0,0,0,0,0,0,0,1,0,0,0,1,0,0,1,0,0,0,1,0,1,0,0,1,0,0,0,0,0,0,0,0,0,0,0,0,0,0,0,0,1,1,0,0,0,0,52.88043156,-118.2060461,0,1995,Donald_1996_Pers_Comms,EC_CWS,2
521,Colfair Lake (upper),0,1,0,0,0,0,0,0,0,0,0,0,0,0,0,0,0,0,0,0,1,0,0,0,0,0,0,0,0,0,0,0,0,0,0,0,0,0,0,0,0,0,1,0,0,0,0,0,52.73453268,-117.862448,1,1979,Donald_DeHenau_1981,EC_CWS,1
522,O'Beirne Lake #5,0,0,0,0,0,0,0,0,0,0,0,0,0,0,0,0,0,0,0,1,0,0,0,0,0,0,0,1,0,0,1,0,1,0,0,0,0,0,0,0,0,0,0,0,0,0,0,0,52.89589722,-118.604447,0,1970,Anderson_1974,EC_CWS,1
523,Cold Sulfur Pond (north),1,0,0,0,0,0,0,0,0,1,0,0,0,1,0,0,0,0,0,0,0,0,0,0,0,0,0,0,0,0,0,0,0,0,0,0,0,0,1,0,0,0,0,1,0,0,0,0,53.04734075,-118.076782,1,1969,Anderson_1970b,EC_CWS,1
524,Colfair Lake (lower),0,1,0,0,0,0,0,0,0,0,0,0,0,0,0,0,1,0,0,0,0,0,0,0,0,0,0,0,0,0,0,0,0,0,0,0,0,0,0,0,0,0,1,0,0,0,0,0,52.73010706,-117.8713942,1,1979,Donald_DeHenau_1981,EC_CWS,1
525,Antler Lake (lower),0,0,0,0,0,0,0,0,0,0,0,0,0,0,0,0,0,0,0,0,0,0,0,0,0,0,0,1,0,0,0,0,0,0,0,0,0,0,0,0,0,0,0,0,0,0,0,0,52.75159298,-117.8145428,0,1968,Anderson_1974,EC_CWS,1
526,O'Beirne Lake #1,1,0,0,0,0,0,0,0,0,0,0,0,0,0,0,0,0,0,0,1,0,0,0,0,0,0,0,0,0,0,1,0,0,0,0,0,0,0,0,0,0,0,0,0,0,0,0,0,52.92257501,-118.6048977,0,1983,Donald_et_al_1985,EC_CWS,2
527,Trapper Lake (lower),0,0,0,0,1,0,0,0,0,0,0,0,0,0,0,0,0,0,0,0,0,0,1,0,0,0,0,1,0,0,1,0,0,0,0,0,0,0,0,0,0,0,0,0,0,0,0,0,52.64767929,-117.6893952,0,1967,Anderson_1974,EC_CWS,1
528,Miette Lake,1,0,0,0,0,0,0,0,0,1,0,0,0,1,0,0,0,0,0,0,0,0,0,0,0,0,0,0,0,0,0,0,1,0,0,0,0,0,0,0,0,0,1,0,0,0,0,0,53.01926363,-118.6289395,0,1984,Donald_et_al_1985,EC_CWS,1
529,1st of Five,1,1,0,0,0,0,0,0,0,1,0,0,1,1,0,0,1,0,0,0,1,1,1,0,0,1,0,0,0,0,0,0,0,0,0,0,1,0,0,0,0,1,1,1,0,0,0,0,52.82214133,-118.0199025,1,2000,Donald_1996_Pers_Comms,EC_CWS,2
530,2nd of Five,0,1,0,0,0,0,1,0,0,0,0,0,0,1,0,0,0,0,0,0,1,0,1,0,0,1,0,0,0,0,0,0,0,0,0,0,0,0,0,0,0,0,0,0,0,0,0,0,52.81812746,-118.0109496,0,1983,Donald_1996_Pers_Comms,EC_CWS,1
531,Edna Lake,0,0,1,1,1,0,0,0,0,1,0,0,0,1,0,0,0,0,0,0,0,1,1,0,0,1,0,0,0,0,0,0,0,0,0,1,0,0,0,0,1,0,0,1,0,0,0,0,53.07566125,-118.0370197,1,1969,Anderson_1970b,EC_CWS,1
532,Cavell Lake (lower),0,0,0,0,0,0,0,0,0,0,0,0,0,0,0,0,0,0,0,0,0,0,0,0,0,0,0,1,0,0,0,0,0,0,0,0,0,0,0,0,0,0,0,0,0,0,0,0,52.69799196,-118.0613127,0,1996,Donald_1996_Pers_Comms,EC_CWS,1
533,Mildred Lake,1,1,0,0,1,0,0,0,0,1,0,0,1,1,0,0,0,0,0,0,1,0,1,0,0,1,0,0,0,0,0,0,0,0,0,0,0,0,0,0,1,0,0,1,0,0,0,0,52.88986954,-118.0572091,0,1968,Anderson_1970b,EC_CWS,1
534,Annette Lake,0,0,1,0,0,0,0,0,0,1,0,0,0,1,0,0,1,0,0,0,1,0,1,0,0,0,0,0,0,0,0,0,0,0,0,0,0,0,0,1,1,0,0,1,0,0,0,0,52.90159979,-118.0482766,1,1994,Donald_et_al_2001,EC_CWS,7
535,Virl Lake,1,1,0,0,0,0,0,0,0,1,0,0,0,1,0,0,1,0,0,0,1,1,0,1,0,0,0,0,0,0,0,0,0,0,0,0,0,0,0,0,1,0,1,0,0,0,0,0,52.87796717,-118.2341372,1,1994,Donald_et_al_2001,EC_CWS,4
536,Patricia Lake,1,0,1,0,1,1,1,0,0,1,0,1,1,1,0,0,0,1,0,0,1,0,1,1,0,1,1,0,0,0,0,0,0,0,0,0,1,0,0,1,1,0,0,1,0,0,0,0,52.90402446,-118.1012078,1,2000,Donald_1996_Pers_Comms,EC_CWS,5
537,Surprise Lake (#1),1,0,0,0,0,0,0,0,0,0,0,0,0,0,0,0,0,0,0,1,0,0,0,0,0,0,0,0,0,0,1,0,0,0,0,0,0,0,0,0,0,0,0,0,0,0,0,0,52.79503918,-117.623619,0,1970,Anderson_1974,EC_CWS,1
538,Moat Lake,1,0,0,0,0,0,0,0,0,0,0,0,0,0,0,0,0,0,0,0,0,0,0,0,0,0,1,1,0,0,1,0,1,0,0,0,0,0,1,0,0,0,0,0,0,0,0,0,52.72217899,-118.3252836,1,1994,Donald_1996_Pers_Comms,EC_CWS,3
539,Ochre Pond,1,0,0,0,0,0,0,0,0,0,0,0,1,1,0,0,0,0,0,0,0,0,1,0,0,0,0,0,0,0,0,0,0,0,0,1,0,0,0,0,0,0,0,0,0,0,0,0,52.90331871,-118.0419396,0,1970,Anderson_1974,EC_CWS,1
540,Riley Lake,1,1,0,0,1,0,1,0,0,1,1,0,0,1,0,0,1,0,0,0,1,0,0,1,0,0,0,0,0,0,0,0,0,0,0,0,0,0,0,0,1,0,1,1,0,0,0,0,52.89306243,-118.1198083,1,1994,Donald_1996_Pers_Comms,EC_CWS,2
541,Christine Lake,1,1,1,0,0,0,0,0,0,1,1,0,0,1,0,0,1,0,0,0,1,0,0,1,0,0,0,0,0,0,0,0,0,0,0,0,0,0,0,0,0,0,1,1,0,0,0,0,52.88351631,-118.2476853,1,1994,Donald_1996_Pers_Comms,EC_CWS,3
542,Saturday Night Lake,1,1,0,0,0,0,0,0,0,1,0,0,0,1,0,0,1,0,0,0,1,0,0,0,0,0,0,0,0,0,0,0,0,0,0,0,0,0,0,0,1,0,1,0,0,0,0,0,52.89368793,-118.1796121,1,1978,Anderson_Donald_1980,EC_CWS,1
543,Pyramid Lake,0,0,0,0,0,0,0,0,0,1,0,0,0,1,0,0,0,1,0,0,1,0,1,1,0,1,0,0,0,0,0,0,0,0,0,0,1,0,0,1,1,0,0,0,0,1,0,0,52.92351842,-118.0988761,1,1994,Donald_1996_Pers_Comms,EC_CWS,7
544,Osprey Lake,1,0,0,0,1,0,0,0,0,1,0,1,0,1,0,0,0,0,0,1,0,0,0,0,0,0,0,0,0,0,0,0,0,0,0,0,0,0,0,0,0,0,0,0,0,0,0,0,52.55911447,-117.6694341,1,1994,Donald_1996_Pers_Comms,EC_CWS,3
545,Jacques Lake,1,0,0,0,0,0,0,0,0,0,0,0,0,1,0,0,0,0,0,1,1,0,1,0,0,0,0,0,0,0,0,0,0,0,0,0,0,0,0,0,0,0,0,0,0,0,1,0,52.92923574,-117.7500797,0,1970,Anderson_1974,EC_CWS,1
546,Minnow Lake,1,1,1,0,0,0,0,0,0,0,0,0,0,0,0,0,1,0,0,0,0,1,0,0,0,0,0,0,0,0,0,0,0,0,0,0,0,0,0,0,1,0,1,1,0,0,0,0,52.89046097,-118.2230913,1,1978,Anderson_Donald_1980,EC_CWS,1
547,Cutt Lake,1,1,0,0,0,0,0,0,0,0,0,0,0,0,0,0,0,0,0,0,1,0,0,0,0,1,0,0,0,0,0,0,0,0,0,0,0,0,0,0,1,0,0,1,0,0,0,0,52.90050265,-118.330124,1,1995,Donald_et_al_2001,EC_CWS,2
548,Beacon Lake,0,0,0,0,0,0,0,0,0,0,0,0,0,0,0,0,0,0,0,1,0,0,0,0,0,0,0,1,0,0,0,0,0,0,0,0,0,0,0,0,0,0,0,0,0,0,0,0,52.5394758,-118.2708194,0,1969,Anderson_1974,EC_CWS,1
549,Harvey Lake,1,1,0,0,0,0,0,0,0,0,0,0,0,0,0,0,0,0,0,0,0,0,0,0,0,0,0,0,0,0,0,0,0,0,0,0,0,0,0,0,0,0,0,0,0,0,0,0,53.15656659,-118.451634,1,1980,Donald_et_al_1985,EC_CWS,2
550,Horseshoe Lake,1,0,0,0,0,0,0,0,0,1,0,0,0,1,0,0,1,0,0,0,1,0,1,0,0,1,0,0,0,0,0,0,0,0,0,0,1,0,0,0,0,0,1,1,1,0,0,0,52.69869169,-117.8657814,1,1997,Donald_1996_Pers_Comms,EC_CWS,4
551,Buck Lake,1,1,0,0,0,0,0,0,0,1,0,1,1,1,0,0,1,0,0,0,0,1,0,1,0,0,0,0,0,0,0,0,0,0,0,0,0,0,0,0,1,1,0,1,0,0,0,0,52.55173885,-117.6636878,1,1994,Donald_1996_Pers_Comms,EC_CWS,3
552,Lorraine Lake,0,1,0,0,0,0,1,0,0,1,0,0,0,0,0,0,0,0,0,0,0,1,0,0,0,0,0,0,0,0,0,0,0,0,0,0,0,0,0,0,0,0,0,1,1,0,0,0,52.73025784,-117.6681577,1,1970,Anderson_1974,EC_CWS,1
553,Sunwapta Lake,1,0,0,0,0,0,0,0,0,0,0,0,0,0,0,0,0,0,0,0,1,0,0,0,0,0,0,0,0,0,0,0,0,0,0,0,0,0,1,0,0,0,0,0,0,0,0,0,52.21500243,-117.2356519,1,1994,Donald_1996_Pers_Comms,EC_CWS,1
554,Honeymoon Lake,1,1,0,0,0,0,0,0,0,1,0,1,0,1,0,0,1,0,0,0,1,0,0,1,0,1,0,0,0,0,0,0,0,0,0,0,0,0,1,0,0,0,0,1,1,0,0,0,52.556354,-117.6774163,1,1996,Donald_1996_Pers_Comms,EC_CWS,4
555,Mona Lake,1,1,0,0,0,0,0,0,0,1,0,0,0,0,0,0,0,0,0,0,1,1,0,0,0,0,0,0,0,0,0,0,0,0,0,0,0,0,0,0,0,0,0,1,0,0,0,0,52.73705637,-117.6741418,1,1970,Anderson_Donald_1978d,EC_CWS,1
556,Beaver Lake,1,0,0,0,0,0,0,0,0,1,0,0,0,1,0,0,0,0,0,0,1,0,0,0,0,0,0,0,0,0,0,0,0,0,0,0,0,0,1,0,1,0,0,0,0,0,0,0,52.86578314,-117.7244442,1,1976,Anderson_Donald_1978d,EC_CWS,2
557,Cabin Lake,1,1,0,0,0,0,0,0,0,1,0,0,0,0,0,0,1,1,0,0,1,0,0,1,0,0,0,0,0,0,0,0,0,0,0,0,1,0,0,1,1,0,1,1,0,0,0,0,52.87837308,-118.1330267,1,1995,Donald_1996_Pers_Comms,EC_CWS,4
558,Chalk Lake,1,0,0,0,0,0,0,0,0,0,0,0,0,0,0,0,0,0,0,0,0,0,0,0,0,0,0,0,0,0,0,0,0,0,0,0,0,0,0,0,0,0,0,0,0,0,0,0,52.52444233,-118.2489678,0,1969,Anderson_1974,EC_CWS,1
559,Edith Lake,0,0,1,0,0,0,0,0,0,1,0,0,0,1,0,0,1,0,0,0,0,1,1,1,0,0,0,0,0,0,0,0,0,0,0,0,1,0,0,1,0,0,0,0,0,0,0,0,52.91028149,-118.0414226,1,1994,Donald_1996_Pers_Comms,EC_CWS,4
560,Amethyst Lake,1,0,0,1,1,0,0,0,0,0,0,0,0,1,0,0,1,0,0,1,0,0,0,0,0,0,1,1,0,0,1,0,1,0,0,0,0,0,1,0,0,0,0,1,0,0,0,0,52.69907543,-118.2767971,1,1976,Anderson_Donald_1978b,EC_CWS,5
561,Hibernia Lake,1,1,1,0,0,0,1,0,0,1,0,0,0,0,0,0,0,0,0,0,1,1,0,1,0,0,0,0,0,0,0,0,0,0,0,0,0,0,0,0,1,0,0,1,0,0,0,0,52.8710393,-118.1431169,1,1994,Donald_et_al_2001,EC_CWS,3
562,Caledonia Lake,0,1,0,0,0,0,0,0,0,1,0,0,0,1,0,0,1,0,1,0,1,0,1,0,0,0,0,0,0,0,0,0,0,0,0,0,0,0,0,0,1,0,0,1,0,0,0,0,52.86754855,-118.1637347,1,1979,Anderson_Donald_1980,EC_CWS,3
563,Marjorie Lake,1,1,0,0,0,0,0,0,0,1,1,0,0,1,0,0,1,0,0,0,1,0,0,1,0,1,0,0,0,0,0,0,0,0,0,0,0,0,0,0,1,0,1,1,0,0,0,0,52.86745489,-118.1315834,1,2000,Donald_et_al_2001,EC_CWS,3
564,Cairn Lake (upper),1,0,0,0,0,0,0,0,0,0,0,0,0,0,0,0,0,0,0,1,0,0,0,0,0,0,0,1,0,0,0,0,0,0,0,0,0,0,1,0,0,0,0,0,0,0,0,0,52.70479497,-117.1584497,0,1970,Anderson_1974,EC_CWS,1
565,Oreamnos Lake,0,0,0,0,0,0,0,0,0,0,0,0,0,1,0,0,0,0,0,1,0,0,0,0,0,0,0,1,0,0,1,0,0,0,0,0,0,0,0,0,0,0,0,0,0,0,0,0,52.51817411,-117.2185394,0,1967,Anderson_1974,EC_CWS,1
567,Southesk Lake (upper),1,0,0,0,0,0,0,0,0,0,0,0,0,0,0,0,0,0,0,0,0,0,0,0,0,0,0,1,0,0,0,0,0,0,0,0,0,0,0,0,0,0,0,0,0,0,0,0,52.61882276,-117.3293657,0,1970,Anderson_1974,EC_CWS,1
568,Lazuline Lake,1,0,0,0,1,0,0,0,0,0,0,0,0,1,0,0,0,0,0,0,0,0,0,0,0,0,0,1,0,0,1,0,0,0,0,0,0,0,1,0,0,0,0,0,0,0,0,0,52.49590079,-117.2524697,0,1967,Anderson_1974,EC_CWS,1
569,Southesk Lake,1,0,0,0,0,0,0,0,0,0,0,0,0,1,0,0,0,0,0,0,0,0,0,0,0,0,0,1,0,0,0,0,0,0,0,0,0,0,1,0,0,0,0,0,0,0,0,0,52.6421982,-117.1999592,0,1970,Anderson_1974,EC_CWS,1
570,Medicine Lake,1,0,0,0,0,0,0,0,0,0,0,0,0,1,0,0,0,0,0,0,0,0,0,0,0,0,0,0,0,0,0,0,0,0,0,0,1,0,0,0,0,0,0,0,0,0,0,0,52.85624415,-117.7590982,1,1976,Anderson_Donald_1978d,EC_CWS,2
571,Moose Pond,0,0,0,0,1,0,0,0,0,0,0,0,0,0,0,0,0,0,0,0,0,0,0,0,0,0,0,0,0,0,0,0,0,0,0,0,0,0,1,0,0,0,0,0,0,0,0,0,52.73449792,-117.634366,1,1969,Anderson_1974,EC_CWS,1
572,Salt Like Pond (north),1,0,0,0,0,0,1,0,0,1,0,0,0,0,0,0,0,0,0,0,0,0,0,0,0,0,0,0,0,0,0,0,0,0,0,0,0,0,1,0,0,0,0,0,0,1,0,0,53.175075,-117.971789,0,1969,Anderson_1970b,EC_CWS,1
573,Salt Like Pond (south),0,0,0,0,1,0,1,0,0,1,0,0,0,0,0,0,0,0,0,0,1,1,1,0,0,0,0,0,0,0,0,0,0,0,0,0,0,0,1,0,0,0,0,0,0,1,0,0,53.174118,-117.971596,0,1969,Anderson_1970b,EC_CWS,1
600,Nutcracker Pond,1,0,0,0,0,0,0,0,0,0,0,0,1,1,0,0,0,0,0,0,1,0,0,0,0,0,0,0,0,0,0,0,0,0,0,0,0,0,1,0,0,0,0,0,0,0,0,0,50.18849668,-114.3979582,0,1967,Anderson_1974,EC_CWS,1
604,Teardrop Pond,0,0,0,0,0,1,0,0,0,0,0,0,0,1,0,0,0,0,0,0,1,0,1,0,0,0,0,0,0,0,1,0,0,0,0,0,0,0,1,0,0,0,0,0,0,0,1,0,50.20173876,-114.4452664,0,1969,Anderson_1974,EC_CWS,1
605,Bear Lake,1,1,0,0,0,0,0,0,0,0,0,0,0,1,0,0,0,0,0,0,0,1,1,0,0,0,0,0,0,0,0,0,0,0,0,0,0,0,0,0,0,0,0,0,0,0,1,0,50.21831438,-114.4300948,1,1966,Anderson_1974,EC_CWS,1
606,Plateau Pond,1,0,0,0,0,0,0,0,0,0,0,0,0,0,0,0,0,0,0,0,1,0,0,0,0,0,0,0,0,0,1,0,0,0,0,0,0,0,0,0,0,0,0,0,0,0,0,0,50.23113541,-114.5080338,0,1966,Anderson_1974,EC_CWS,1
664,Cuthead Lake,1,0,0,0,0,0,0,0,0,0,0,0,0,1,0,0,0,0,0,1,0,0,1,0,0,1,0,0,0,0,0,0,0,0,0,0,0,0,1,0,0,0,0,0,1,0,0,0,51.44938939,-115.7524387,1,2000,McMaster_Schindler_2005,Vinebrooke,7
665,Burstall Lake (Lower),1,0,0,0,0,0,0,0,0,0,0,0,0,0,0,0,0,0,0,0,1,0,0,1,0,1,0,1,0,0,0,0,0,0,0,0,0,0,0,0,0,0,0,0,0,0,0,0,50.78548432,-115.3259057,1,2013,Loewen_Vinebrooke_2016,Vinebrooke,2
666,Vermilion Lake (#3),0,0,1,0,0,0,1,0,0,1,0,0,0,1,0,0,1,0,0,0,0,0,1,0,0,0,0,0,0,0,0,0,0,0,0,1,0,0,0,0,1,0,0,0,0,0,0,0,51.17500447,-115.6305624,1,1969,Anderson_1974,EC_CWS,1
667,Pilot Pond,1,0,0,0,0,0,0,0,0,0,0,0,0,0,0,0,0,0,0,0,1,0,0,0,0,0,0,0,0,0,0,0,0,0,0,0,0,0,0,0,1,0,0,1,0,0,0,0,51.22831312,-115.8132091,1,1996,Donald_et_al_2001,EC_CWS,2
668,Bourgeau Lake,0,0,0,0,0,0,0,0,0,0,0,0,0,0,0,0,0,0,0,0,0,0,1,0,0,0,0,1,0,0,0,0,0,0,0,0,0,0,0,0,0,0,0,0,0,0,0,0,51.13578495,-115.7901118,1,1973,Anderson_1974,EC_CWS,1
669,Pharoah Lake,1,0,0,0,0,0,0,0,0,0,0,0,0,0,0,0,0,0,0,1,0,0,1,0,0,0,0,1,0,0,0,0,0,0,0,0,0,0,0,0,0,0,0,0,0,0,0,0,51.11436033,-115.9103674,1,1968,Anderson_1974,EC_CWS,1
670,B327 (Lake),0,0,0,0,0,0,0,0,0,0,0,0,0,0,0,0,0,0,0,1,1,0,1,0,0,0,0,1,0,0,0,0,0,0,0,0,0,0,0,0,0,0,0,0,0,0,0,0,51.66774732,-116.0787909,0,NA,Donald_1996_Pers_Comms,EC_CWS,1
671,B324,0,0,0,0,0,0,0,0,0,0,0,0,0,0,0,0,0,0,0,0,0,0,0,0,0,0,0,1,0,0,0,0,0,0,0,0,0,0,0,0,0,0,0,0,0,0,0,0,51.68038919,-116.0995942,0,NA,Donald_1996_Pers_Comms,EC_CWS,1
672,B323,0,0,0,0,0,0,0,0,0,0,0,0,0,0,0,0,0,0,0,1,1,0,1,0,0,0,0,1,0,0,0,0,0,0,0,0,0,0,0,0,0,0,0,0,0,0,0,0,51.67544006,-116.1002853,0,NA,Donald_1996_Pers_Comms,EC_CWS,1
673,B328,0,0,0,0,0,0,0,0,0,0,0,0,0,0,0,0,0,0,0,0,1,0,0,0,0,0,0,1,0,0,0,0,0,0,0,0,0,0,0,0,0,0,0,0,0,0,0,0,51.67018782,-116.0758347,0,NA,Donald_1996_Pers_Comms,EC_CWS,1
676,Totem Lake,0,0,0,0,0,0,0,0,0,0,0,0,0,1,0,0,0,0,0,0,0,0,0,0,0,0,0,0,0,0,0,0,0,0,0,0,0,0,0,0,0,0,0,0,0,0,0,0,51.88888983,-116.6272464,1,1966,Anderson_1974,EC_CWS,1
677,Dolomite Lake (upper),1,0,0,1,0,0,0,0,0,0,0,0,0,0,0,0,0,0,0,0,0,0,0,0,0,0,0,1,0,0,0,0,0,0,0,0,0,0,0,0,0,0,0,0,0,0,0,0,51.69305328,-116.3844075,1,1967,Anderson_1974,EC_CWS,1
678,Mistaya Lake,1,0,0,0,0,0,0,0,0,0,0,0,0,1,0,0,0,0,0,0,0,0,0,0,0,1,0,1,0,0,0,0,0,0,0,0,1,0,0,0,0,0,0,0,0,0,0,0,51.79704901,-116.5960147,1,1973,Anderson_1974,EC_CWS,1
679,Waterfowl Lake (lower),0,0,0,0,0,0,0,0,0,1,0,0,0,1,0,0,1,0,0,0,1,0,0,0,0,0,0,1,0,0,0,0,0,0,0,0,1,0,1,0,0,0,0,0,1,0,0,0,51.84993908,-116.6355823,1,2013,Loewen_Vinebrooke_2016,Vinebrooke,3
681,Waterfowl Lake (upper),1,0,0,0,0,0,0,0,0,0,0,0,0,1,0,0,0,0,0,0,0,0,0,0,0,1,0,0,0,0,0,0,0,0,0,0,1,0,0,0,0,0,0,0,0,0,0,0,51.8321433,-116.6151619,1,1966,Anderson_1974,EC_CWS,1
682,B211,0,0,0,0,0,0,0,0,0,0,0,0,0,0,0,0,0,0,0,0,0,0,0,0,0,0,0,1,0,0,0,0,0,0,0,0,0,0,0,0,0,0,0,0,0,0,0,0,51.47884069,-115.9488366,0,NA,Donald_1996_Pers_Comms,EC_CWS,1
683,Cirque Lake,0,0,0,0,0,0,0,0,0,0,0,0,0,0,0,0,0,0,0,0,0,0,1,0,0,0,0,1,0,0,0,0,0,0,0,0,0,0,0,0,0,0,0,0,0,0,0,0,51.80731168,-116.6327497,1,1966,Anderson_1974,EC_CWS,1
684,Norman Lake,0,0,0,0,0,0,0,0,0,0,0,0,0,1,0,0,0,0,0,0,0,0,0,0,0,0,0,0,0,0,0,0,0,0,0,0,0,0,0,0,0,0,0,0,1,0,1,0,52.09215022,-116.9023639,1,1966,Anderson_1974,EC_CWS,1
685,Warden Lake (upper),1,0,1,0,0,0,1,0,0,1,0,0,0,1,0,0,0,0,0,0,0,0,0,0,0,1,0,0,0,0,0,0,0,0,0,0,0,0,1,0,0,0,0,0,1,0,0,0,51.97757683,-116.6921442,1,1970,Anderson_1974,EC_CWS,1
686,Pinto Lake,1,0,0,0,0,0,0,0,0,1,0,0,0,1,0,0,0,0,0,1,0,0,0,0,0,0,0,1,0,0,0,0,0,0,0,0,0,0,0,0,0,0,0,0,0,0,0,0,52.12470494,-116.8649423,0,1969,Anderson_1974,EC_CWS,1
687,Peyto Lake,0,0,0,0,0,0,0,0,0,0,0,0,0,0,0,0,0,0,0,0,0,0,0,0,0,0,0,1,0,0,0,0,0,0,0,0,0,0,0,0,0,0,0,0,0,0,0,0,51.72502913,-116.5220224,1,1994,Donald_1996_Pers_Comms,EC_CWS,1
688,Outram Lake,1,0,0,0,0,0,0,0,0,0,0,0,0,1,0,0,0,0,0,0,1,0,1,0,0,0,0,0,0,0,0,0,0,0,0,0,0,0,0,0,0,0,0,0,0,0,0,0,51.86500789,-116.8113477,1,1999,Donald_et_al_2001,EC_CWS,1
689,Landslide Lake,0,0,0,0,0,0,0,0,0,1,0,0,0,1,0,0,0,0,0,0,1,0,1,0,0,0,0,1,0,0,0,0,0,0,0,0,0,0,0,0,0,0,0,0,0,0,0,0,52.08341957,-116.5546731,1,1972,Anderson_1974,EC_CWS,1
690,Glacier Lake,0,0,0,0,0,0,0,0,0,0,0,0,0,1,0,0,0,0,0,0,0,0,0,0,0,0,0,1,0,0,0,0,0,0,0,0,0,0,0,0,0,0,0,0,0,0,0,0,51.92119953,-116.8609007,1,1995,Donald_1996_Pers_Comms,EC_CWS,1
691,Mt. Douglas Small Pond 1,1,0,0,0,0,0,0,0,0,0,0,0,0,1,0,0,0,0,0,0,0,0,0,0,0,0,0,0,0,0,0,0,0,0,0,0,0,0,0,0,0,0,0,0,0,0,0,0,51.51460116,-115.9427245,0,2000,McMaster_Schindler_2005,Vinebrooke,1
692,Lost Horse Lake,1,0,0,0,0,0,0,0,0,0,0,0,0,1,0,0,0,0,0,1,0,0,0,0,0,0,0,1,0,0,0,0,0,0,0,0,0,0,0,0,0,0,0,0,0,0,0,0,51.48280238,-115.6664978,0,1968,Anderson_1974,EC_CWS,1
693,B347,0,0,0,0,0,0,0,0,0,0,0,0,0,0,0,0,0,0,0,1,0,0,0,0,0,0,0,1,0,0,0,0,0,0,0,0,0,0,0,0,0,0,0,0,0,0,0,0,51.7272481,-116.0398347,0,NA,Donald_1996_Pers_Comms,EC_CWS,1
694,B222,0,0,0,0,0,0,0,0,0,0,0,0,0,1,0,0,0,0,0,0,0,0,0,0,0,0,0,1,0,0,0,0,0,0,0,0,0,0,0,0,0,0,0,0,0,0,0,0,51.51351474,-115.8529808,0,NA,Donald_1996_Pers_Comms,EC_CWS,1
696,Crescent Lake,1,0,0,0,0,0,0,0,0,0,0,0,0,1,0,0,0,0,0,1,0,0,0,0,0,0,0,1,0,0,0,0,0,0,0,0,0,0,0,0,0,0,0,0,0,0,0,0,51.49785825,-115.6643729,0,1968,Anderson_1974,EC_CWS,1
697,Anderson Pond,0,0,0,0,0,0,0,0,0,0,0,0,0,0,0,0,0,0,0,0,0,0,0,0,0,0,0,1,0,0,0,0,0,0,0,0,0,0,0,0,0,0,0,0,0,0,0,0,51.65144967,-115.9288467,0,NA,Donald_1996_Pers_Comms,EC_CWS,1
698,B330,0,0,0,0,0,0,0,0,0,0,0,0,0,0,0,0,0,0,0,0,1,0,0,0,0,0,0,1,0,0,0,0,0,0,0,0,0,0,0,0,0,0,0,0,0,0,0,0,51.69466222,-116.0332611,0,NA,Donald_1996_Pers_Comms,EC_CWS,1
699,B208,0,0,0,0,0,0,0,0,0,0,0,0,0,1,0,0,0,0,0,0,0,0,0,0,0,0,0,1,0,0,0,0,0,0,0,0,0,0,0,0,0,0,0,0,0,0,0,0,51.52168515,-115.9525493,0,NA,Donald_1996_Pers_Comms,EC_CWS,1
700,Mt. Douglas Small Pond 2,1,0,0,0,0,0,0,0,0,0,0,0,1,1,0,0,1,0,0,0,0,0,0,0,0,0,0,0,0,0,0,0,0,0,0,0,0,0,0,0,0,0,0,0,0,0,0,0,51.5140129,-115.9423058,0,2000,McMaster_Schindler_2005,Vinebrooke,1
701,Divide Pond (lower),0,0,0,0,0,0,0,0,0,0,0,0,0,0,0,0,1,0,0,0,0,0,0,0,0,0,0,1,0,0,0,0,0,0,0,1,0,0,0,0,0,0,0,0,0,0,0,0,51.74072916,-115.9161057,0,2000,McMaster_Schindler_2005,Vinebrooke,3
703,B216,0,0,0,0,0,0,0,0,0,0,0,0,0,0,0,0,0,0,0,0,0,0,0,0,0,0,0,1,0,0,0,0,0,0,0,0,0,0,0,0,0,0,0,0,0,0,0,0,51.51543188,-115.8934017,0,NA,Donald_1996_Pers_Comms,EC_CWS,1
705,Toad Pond,1,0,1,0,0,0,0,0,0,0,0,0,0,1,0,0,0,0,0,0,1,0,0,0,0,0,0,0,0,0,0,0,0,0,0,0,0,0,0,0,0,0,0,0,0,0,0,0,51.59210509,-115.7937909,0,2000,McMaster_Schindler_2005,Vinebrooke,1
706,B243,0,0,0,0,0,0,0,0,0,0,0,0,0,0,0,0,0,0,0,0,0,0,0,0,0,0,0,1,0,0,0,0,0,0,0,0,0,0,0,0,0,0,0,0,0,0,0,0,51.54776415,-115.8602106,0,NA,Donald_1996_Pers_Comms,EC_CWS,1
707,B246,0,0,0,0,0,0,0,0,0,0,0,0,0,1,0,0,0,0,0,0,0,0,0,0,0,0,0,1,0,0,0,0,0,0,0,0,0,0,0,0,0,0,0,0,0,0,0,0,51.58584403,-115.8986637,0,NA,Donald_1996_Pers_Comms,EC_CWS,1
